[
  {
    "id": "apt-0001",
    "title": "Arriendo Apartamento en Chapinero - 61m²",
    "price": 4100000,
    "currency": "COP",
    "areaM2": 61,
    "bedrooms": 1,
    "bathrooms": 1,
    "neighborhood": "Chapinero",
    "city": "Bogota",
    "lat": 4.651138108214957,
    "lon": -74.06281522837637,
    "operationType": "rent",
    "createdDate": "2026-02-07",
    "source": "Metrocuadrado"
  },
  {
    "id": "apt-0002",
    "title": "Venta Apartamento en Chapinero - 112m²",
    "price": 789300000,
    "currency": "COP",
    "areaM2": 112,
    "bedrooms": 3,
    "bathrooms": 1,
    "neighborhood": "Chapinero",
    "city": "Bogota",
    "lat": 4.639324111962993,
    "lon": -74.06565014269171,
    "operationType": "sale",
    "createdDate": "2026-03-16",
    "source": "Ciencuadras"
  },
  {
    "id": "apt-0003",
    "title": "Arriendo Apartamento en Chapinero - 99m²",
    "price": 4500000,
    "currency": "COP",
    "areaM2": 99,
    "bedrooms": 2,
    "bathrooms": 2,
    "neighborhood": "Chapinero",
    "city": "Bogota",
    "lat": 4.649437881176302,
    "lon": -74.06353105375547,
    "operationType": "rent",
    "createdDate": "2026-02-12",
    "source": "Properati"
  },
  {
    "id": "apt-0004",
    "title": "Oportunidad Apto en Chapinero - 41m²",
    "price": 307400000,
    "currency": "COP",
    "areaM2": 41,
    "bedrooms": 1,
    "bathrooms": 1,
    "neighborhood": "Chapinero",
    "city": "Bogota",
    "lat": 4.650231587288186,
    "lon": -74.05871243753955,
    "operationType": "sale",
    "createdDate": "2026-02-04",
    "source": "OLX"
  },
  {
    "id": "apt-0005",
    "title": "Se Arrienda Apartamento en Chapinero - 70m²",
    "price": 2700000,
    "currency": "COP",
    "areaM2": 70,
    "bedrooms": 2,
    "bathrooms": 1,
    "neighborhood": "Chapinero",
    "city": "Bogota",
    "lat": 4.641956702090294,
    "lon": -74.06970789374897,
    "operationType": "rent",
    "createdDate": "2026-02-08",
    "source": "FincaRaiz"
  },
  {
    "id": "apt-0006",
    "title": "Arriendo Hermoso Apto en Chapinero - 55m²",
    "price": 2700000,
    "currency": "COP",
    "areaM2": 55,
    "bedrooms": 1,
    "bathrooms": 1,
    "neighborhood": "Chapinero",
    "city": "Bogota",
    "lat": 4.644691309387974,
    "lon": -74.06916306304342,
    "operationType": "rent",
    "createdDate": "2025-12-30",
    "source": "Properati"
  },
  {
    "id": "apt-0007",
    "title": "Se Arrienda Apartamento en Chapinero - 84m²",
    "price": 2200000,
    "currency": "COP",
    "areaM2": 84,
    "bedrooms": 3,
    "bathrooms": 1,
    "neighborhood": "Chapinero",
    "city": "Bogota",
    "lat": 4.642490752927951,
    "lon": -74.06391546943264,
    "operationType": "rent",
    "createdDate": "2026-01-20",
    "source": "FincaRaiz"
  },
  {
    "id": "apt-0008",
    "title": "Se Arrienda Apartamento en Usaquen - 53m²",
    "price": 2500000,
    "currency": "COP",
    "areaM2": 53,
    "bedrooms": 1,
    "bathrooms": 1,
    "neighborhood": "Usaquen",
    "city": "Bogota",
    "lat": 4.694204988444414,
    "lon": -74.03575914197765,
    "operationType": "rent",
    "createdDate": "2026-02-09",
    "source": "Properati"
  },
  {
    "id": "apt-0009",
    "title": "Se Vende Apartamento en Usaquen - 95m²",
    "price": 1186900000,
    "currency": "COP",
    "areaM2": 95,
    "bedrooms": 3,
    "bathrooms": 1,
    "neighborhood": "Usaquen",
    "city": "Bogota",
    "lat": 4.702226839750285,
    "lon": -74.03250430699764,
    "operationType": "sale",
    "createdDate": "2026-02-15",
    "source": "Ciencuadras"
  },
  {
    "id": "apt-0010",
    "title": "Se Arrienda Apartamento en Usaquen - 91m²",
    "price": 6900000,
    "currency": "COP",
    "areaM2": 91,
    "bedrooms": 3,
    "bathrooms": 3,
    "neighborhood": "Usaquen",
    "city": "Bogota",
    "lat": 4.696862432409415,
    "lon": -74.02709844300811,
    "operationType": "rent",
    "createdDate": "2026-02-07",
    "source": "Metrocuadrado"
  },
  {
    "id": "apt-0011",
    "title": "Venta Apartamento en Usaquen - 108m²",
    "price": 649100000,
    "currency": "COP",
    "areaM2": 108,
    "bedrooms": 3,
    "bathrooms": 2,
    "neighborhood": "Usaquen",
    "city": "Bogota",
    "lat": 4.695846453473294,
    "lon": -74.03265641444237,
    "operationType": "sale",
    "createdDate": "2026-03-24",
    "source": "OLX"
  },
  {
    "id": "apt-0012",
    "title": "Apto en Venta en Usaquen - 172m²",
    "price": 757500000,
    "currency": "COP",
    "areaM2": 172,
    "bedrooms": 3,
    "bathrooms": 2,
    "neighborhood": "Usaquen",
    "city": "Bogota",
    "lat": 4.694664613255453,
    "lon": -74.0358449464588,
    "operationType": "sale",
    "createdDate": "2026-02-21",
    "source": "OLX"
  },
  {
    "id": "apt-0013",
    "title": "Arriendo Apartamento en Usaquen - 112m²",
    "price": 2100000,
    "currency": "COP",
    "areaM2": 112,
    "bedrooms": 4,
    "bathrooms": 3,
    "neighborhood": "Usaquen",
    "city": "Bogota",
    "lat": 4.6945047558751,
    "lon": -74.03756793679769,
    "operationType": "rent",
    "createdDate": "2026-01-14",
    "source": "Metrocuadrado"
  },
  {
    "id": "apt-0014",
    "title": "Apto en Venta en Usaquen - 94m²",
    "price": 878100000,
    "currency": "COP",
    "areaM2": 94,
    "bedrooms": 2,
    "bathrooms": 1,
    "neighborhood": "Usaquen",
    "city": "Bogota",
    "lat": 4.697748114667598,
    "lon": -74.03643673666514,
    "operationType": "sale",
    "createdDate": "2026-02-28",
    "source": "Ciencuadras"
  },
  {
    "id": "apt-0015",
    "title": "Apto en Venta en Usaquen - 117m²",
    "price": 929500000,
    "currency": "COP",
    "areaM2": 117,
    "bedrooms": 4,
    "bathrooms": 1,
    "neighborhood": "Usaquen",
    "city": "Bogota",
    "lat": 4.691835484150643,
    "lon": -74.03501778884187,
    "operationType": "sale",
    "createdDate": "2026-03-10",
    "source": "Ciencuadras"
  },
  {
    "id": "apt-0016",
    "title": "Apto en Arriendo en Usaquen - 117m²",
    "price": 4900000,
    "currency": "COP",
    "areaM2": 117,
    "bedrooms": 3,
    "bathrooms": 2,
    "neighborhood": "Usaquen",
    "city": "Bogota",
    "lat": 4.694347035593676,
    "lon": -74.03337270545016,
    "operationType": "rent",
    "createdDate": "2026-02-16",
    "source": "Metrocuadrado"
  },
  {
    "id": "apt-0017",
    "title": "Apto en Venta en Usaquen - 145m²",
    "price": 486900000,
    "currency": "COP",
    "areaM2": 145,
    "bedrooms": 3,
    "bathrooms": 1,
    "neighborhood": "Usaquen",
    "city": "Bogota",
    "lat": 4.696547710853207,
    "lon": -74.03662363573454,
    "operationType": "sale",
    "createdDate": "2026-01-10",
    "source": "Ciencuadras"
  },
  {
    "id": "apt-0018",
    "title": "Arriendo Hermoso Apto en Usaquen - 80m²",
    "price": 6000000,
    "currency": "COP",
    "areaM2": 80,
    "bedrooms": 3,
    "bathrooms": 1,
    "neighborhood": "Usaquen",
    "city": "Bogota",
    "lat": 4.700685087762479,
    "lon": -74.02472995397237,
    "operationType": "rent",
    "createdDate": "2026-02-23",
    "source": "OLX"
  },
  {
    "id": "apt-0019",
    "title": "Arriendo Apartamento en Chico - 155m²",
    "price": 3200000,
    "currency": "COP",
    "areaM2": 155,
    "bedrooms": 4,
    "bathrooms": 4,
    "neighborhood": "Chico",
    "city": "Bogota",
    "lat": 4.6650370147205305,
    "lon": -74.06089351799376,
    "operationType": "rent",
    "createdDate": "2026-02-06",
    "source": "FincaRaiz"
  },
  {
    "id": "apt-0020",
    "title": "Apto en Arriendo en Chico - 171m²",
    "price": 3400000,
    "currency": "COP",
    "areaM2": 171,
    "bedrooms": 3,
    "bathrooms": 1,
    "neighborhood": "Chico",
    "city": "Bogota",
    "lat": 4.670681425257754,
    "lon": -74.05528566303178,
    "operationType": "rent",
    "createdDate": "2026-01-02",
    "source": "Properati"
  },
  {
    "id": "apt-0021",
    "title": "Arriendo Apartamento en Chico - 192m²",
    "price": 6000000,
    "currency": "COP",
    "areaM2": 192,
    "bedrooms": 3,
    "bathrooms": 2,
    "neighborhood": "Chico",
    "city": "Bogota",
    "lat": 4.670799891067948,
    "lon": -74.05923079204395,
    "operationType": "rent",
    "createdDate": "2026-02-04",
    "source": "OLX"
  },
  {
    "id": "apt-0022",
    "title": "Se Vende Apartamento en Chico - 91m²",
    "price": 889200000,
    "currency": "COP",
    "areaM2": 91,
    "bedrooms": 3,
    "bathrooms": 2,
    "neighborhood": "Chico",
    "city": "Bogota",
    "lat": 4.667136154852934,
    "lon": -74.0606453291072,
    "operationType": "sale",
    "createdDate": "2026-01-30",
    "source": "OLX"
  },
  {
    "id": "apt-0023",
    "title": "Se Vende Apartamento en Chico - 90m²",
    "price": 1301900000,
    "currency": "COP",
    "areaM2": 90,
    "bedrooms": 2,
    "bathrooms": 1,
    "neighborhood": "Chico",
    "city": "Bogota",
    "lat": 4.673956062009052,
    "lon": -74.05346580961763,
    "operationType": "sale",
    "createdDate": "2026-03-21",
    "source": "OLX"
  },
  {
    "id": "apt-0024",
    "title": "Oportunidad Apto en Chico - 111m²",
    "price": 998600000,
    "currency": "COP",
    "areaM2": 111,
    "bedrooms": 3,
    "bathrooms": 3,
    "neighborhood": "Chico",
    "city": "Bogota",
    "lat": 4.673218884891103,
    "lon": -74.05320162520995,
    "operationType": "sale",
    "createdDate": "2026-03-20",
    "source": "OLX"
  },
  {
    "id": "apt-0025",
    "title": "Se Vende Apartamento en Chico - 63m²",
    "price": 1115700000,
    "currency": "COP",
    "areaM2": 63,
    "bedrooms": 1,
    "bathrooms": 1,
    "neighborhood": "Chico",
    "city": "Bogota",
    "lat": 4.672689447823156,
    "lon": -74.05645042203456,
    "operationType": "sale",
    "createdDate": "2026-01-08",
    "source": "Ciencuadras"
  },
  {
    "id": "apt-0026",
    "title": "Apto en Arriendo en Chico - 185m²",
    "price": 5100000,
    "currency": "COP",
    "areaM2": 185,
    "bedrooms": 3,
    "bathrooms": 1,
    "neighborhood": "Chico",
    "city": "Bogota",
    "lat": 4.667721043721513,
    "lon": -74.05541811948169,
    "operationType": "rent",
    "createdDate": "2026-02-06",
    "source": "OLX"
  },
  {
    "id": "apt-0027",
    "title": "Arriendo Hermoso Apto en Chico - 78m²",
    "price": 5900000,
    "currency": "COP",
    "areaM2": 78,
    "bedrooms": 3,
    "bathrooms": 3,
    "neighborhood": "Chico",
    "city": "Bogota",
    "lat": 4.665994694055518,
    "lon": -74.06017694233654,
    "operationType": "rent",
    "createdDate": "2026-02-15",
    "source": "Ciencuadras"
  },
  {
    "id": "apt-0028",
    "title": "Apto en Arriendo en Chico - 106m²",
    "price": 4700000,
    "currency": "COP",
    "areaM2": 106,
    "bedrooms": 3,
    "bathrooms": 3,
    "neighborhood": "Chico",
    "city": "Bogota",
    "lat": 4.664105287462105,
    "lon": -74.06043354304967,
    "operationType": "rent",
    "createdDate": "2026-01-04",
    "source": "OLX"
  },
  {
    "id": "apt-0029",
    "title": "Arriendo Apartamento en Chico - 179m²",
    "price": 6600000,
    "currency": "COP",
    "areaM2": 179,
    "bedrooms": 3,
    "bathrooms": 2,
    "neighborhood": "Chico",
    "city": "Bogota",
    "lat": 4.663938552632405,
    "lon": -74.05774582451652,
    "operationType": "rent",
    "createdDate": "2026-02-16",
    "source": "OLX"
  },
  {
    "id": "apt-0030",
    "title": "Oportunidad Apto en Suba - 87m²",
    "price": 300100000,
    "currency": "COP",
    "areaM2": 87,
    "bedrooms": 3,
    "bathrooms": 2,
    "neighborhood": "Suba",
    "city": "Bogota",
    "lat": 4.74566749161218,
    "lon": -74.08746845191762,
    "operationType": "sale",
    "createdDate": "2026-03-06",
    "source": "OLX"
  },
  {
    "id": "apt-0031",
    "title": "Se Vende Apartamento en Suba - 50m²",
    "price": 283100000,
    "currency": "COP",
    "areaM2": 50,
    "bedrooms": 2,
    "bathrooms": 1,
    "neighborhood": "Suba",
    "city": "Bogota",
    "lat": 4.73905761744553,
    "lon": -74.0896235190836,
    "operationType": "sale",
    "createdDate": "2026-02-07",
    "source": "Metrocuadrado"
  },
  {
    "id": "apt-0032",
    "title": "Venta Apartamento en Suba - 36m²",
    "price": 476300000,
    "currency": "COP",
    "areaM2": 36,
    "bedrooms": 1,
    "bathrooms": 1,
    "neighborhood": "Suba",
    "city": "Bogota",
    "lat": 4.7374641478508375,
    "lon": -74.08106698460232,
    "operationType": "sale",
    "createdDate": "2026-01-12",
    "source": "Properati"
  },
  {
    "id": "apt-0033",
    "title": "Venta Apartamento en Suba - 60m²",
    "price": 426800000,
    "currency": "COP",
    "areaM2": 60,
    "bedrooms": 1,
    "bathrooms": 1,
    "neighborhood": "Suba",
    "city": "Bogota",
    "lat": 4.739306542975648,
    "lon": -74.09093213634141,
    "operationType": "sale",
    "createdDate": "2026-03-01",
    "source": "OLX"
  },
  {
    "id": "apt-0034",
    "title": "Oportunidad Apto en Suba - 81m²",
    "price": 167900000,
    "currency": "COP",
    "areaM2": 81,
    "bedrooms": 3,
    "bathrooms": 1,
    "neighborhood": "Suba",
    "city": "Bogota",
    "lat": 4.741742553759591,
    "lon": -74.08389890965158,
    "operationType": "sale",
    "createdDate": "2026-01-18",
    "source": "Ciencuadras"
  },
  {
    "id": "apt-0035",
    "title": "Venta Apartamento en Suba - 53m²",
    "price": 405600000,
    "currency": "COP",
    "areaM2": 53,
    "bedrooms": 2,
    "bathrooms": 2,
    "neighborhood": "Suba",
    "city": "Bogota",
    "lat": 4.739529260417939,
    "lon": -74.08272008548698,
    "operationType": "sale",
    "createdDate": "2026-02-01",
    "source": "Metrocuadrado"
  },
  {
    "id": "apt-0036",
    "title": "Se Arrienda Apartamento en Suba - 67m²",
    "price": 1600000,
    "currency": "COP",
    "areaM2": 67,
    "bedrooms": 2,
    "bathrooms": 1,
    "neighborhood": "Suba",
    "city": "Bogota",
    "lat": 4.745153962914509,
    "lon": -74.07834526964962,
    "operationType": "rent",
    "createdDate": "2026-02-15",
    "source": "Properati"
  },
  {
    "id": "apt-0037",
    "title": "Oportunidad Apto en Suba - 64m²",
    "price": 200400000,
    "currency": "COP",
    "areaM2": 64,
    "bedrooms": 2,
    "bathrooms": 2,
    "neighborhood": "Suba",
    "city": "Bogota",
    "lat": 4.742918858338071,
    "lon": -74.08374786835002,
    "operationType": "sale",
    "createdDate": "2026-03-24",
    "source": "Ciencuadras"
  },
  {
    "id": "apt-0038",
    "title": "Arriendo Apartamento en Suba - 84m²",
    "price": 1200000,
    "currency": "COP",
    "areaM2": 84,
    "bedrooms": 2,
    "bathrooms": 1,
    "neighborhood": "Suba",
    "city": "Bogota",
    "lat": 4.735623506499569,
    "lon": -74.08672616096561,
    "operationType": "rent",
    "createdDate": "2026-01-05",
    "source": "OLX"
  },
  {
    "id": "apt-0039",
    "title": "Se Arrienda Apartamento en Suba - 57m²",
    "price": 2400000,
    "currency": "COP",
    "areaM2": 57,
    "bedrooms": 1,
    "bathrooms": 1,
    "neighborhood": "Suba",
    "city": "Bogota",
    "lat": 4.743165810544664,
    "lon": -74.08822213409256,
    "operationType": "rent",
    "createdDate": "2026-01-21",
    "source": "OLX"
  },
  {
    "id": "apt-0040",
    "title": "Oportunidad Apto en Suba - 89m²",
    "price": 212500000,
    "currency": "COP",
    "areaM2": 89,
    "bedrooms": 2,
    "bathrooms": 2,
    "neighborhood": "Suba",
    "city": "Bogota",
    "lat": 4.746784965065108,
    "lon": -74.08609213731773,
    "operationType": "sale",
    "createdDate": "2026-02-24",
    "source": "Metrocuadrado"
  },
  {
    "id": "apt-0041",
    "title": "Arriendo Apartamento en Cedritos - 100m²",
    "price": 3100000,
    "currency": "COP",
    "areaM2": 100,
    "bedrooms": 2,
    "bathrooms": 1,
    "neighborhood": "Cedritos",
    "city": "Bogota",
    "lat": 4.718422663385442,
    "lon": -74.04529640200715,
    "operationType": "rent",
    "createdDate": "2026-01-16",
    "source": "OLX"
  },
  {
    "id": "apt-0042",
    "title": "Apto en Arriendo en Cedritos - 84m²",
    "price": 1800000,
    "currency": "COP",
    "areaM2": 84,
    "bedrooms": 3,
    "bathrooms": 1,
    "neighborhood": "Cedritos",
    "city": "Bogota",
    "lat": 4.718892289210942,
    "lon": -74.04229515650663,
    "operationType": "rent",
    "createdDate": "2026-02-03",
    "source": "Metrocuadrado"
  },
  {
    "id": "apt-0043",
    "title": "Venta Apartamento en Cedritos - 91m²",
    "price": 588300000,
    "currency": "COP",
    "areaM2": 91,
    "bedrooms": 2,
    "bathrooms": 1,
    "neighborhood": "Cedritos",
    "city": "Bogota",
    "lat": 4.714516719931287,
    "lon": -74.05248800543508,
    "operationType": "sale",
    "createdDate": "2026-01-12",
    "source": "OLX"
  },
  {
    "id": "apt-0044",
    "title": "Venta Apartamento en Cedritos - 41m²",
    "price": 253400000,
    "currency": "COP",
    "areaM2": 41,
    "bedrooms": 1,
    "bathrooms": 1,
    "neighborhood": "Cedritos",
    "city": "Bogota",
    "lat": 4.717498877463395,
    "lon": -74.04636638661415,
    "operationType": "sale",
    "createdDate": "2026-01-06",
    "source": "Properati"
  },
  {
    "id": "apt-0045",
    "title": "Oportunidad Apto en Cedritos - 44m²",
    "price": 523200000,
    "currency": "COP",
    "areaM2": 44,
    "bedrooms": 1,
    "bathrooms": 1,
    "neighborhood": "Cedritos",
    "city": "Bogota",
    "lat": 4.716993952321348,
    "lon": -74.04264324504337,
    "operationType": "sale",
    "createdDate": "2026-02-04",
    "source": "FincaRaiz"
  },
  {
    "id": "apt-0046",
    "title": "Oportunidad Apto en Cedritos - 77m²",
    "price": 436200000,
    "currency": "COP",
    "areaM2": 77,
    "bedrooms": 2,
    "bathrooms": 1,
    "neighborhood": "Cedritos",
    "city": "Bogota",
    "lat": 4.727113752055554,
    "lon": -74.04416919146495,
    "operationType": "sale",
    "createdDate": "2026-01-16",
    "source": "Properati"
  },
  {
    "id": "apt-0047",
    "title": "Oportunidad Apto en Cedritos - 44m²",
    "price": 327100000,
    "currency": "COP",
    "areaM2": 44,
    "bedrooms": 1,
    "bathrooms": 1,
    "neighborhood": "Cedritos",
    "city": "Bogota",
    "lat": 4.716504032776695,
    "lon": -74.04172102820661,
    "operationType": "sale",
    "createdDate": "2026-01-09",
    "source": "Properati"
  },
  {
    "id": "apt-0048",
    "title": "Arriendo Apartamento en Cedritos - 90m²",
    "price": 1500000,
    "currency": "COP",
    "areaM2": 90,
    "bedrooms": 2,
    "bathrooms": 2,
    "neighborhood": "Cedritos",
    "city": "Bogota",
    "lat": 4.728166274811296,
    "lon": -74.05441924394194,
    "operationType": "rent",
    "createdDate": "2026-01-03",
    "source": "Ciencuadras"
  },
  {
    "id": "apt-0049",
    "title": "Arriendo Apartamento en Cedritos - 109m²",
    "price": 3000000,
    "currency": "COP",
    "areaM2": 109,
    "bedrooms": 2,
    "bathrooms": 1,
    "neighborhood": "Cedritos",
    "city": "Bogota",
    "lat": 4.71560221806504,
    "lon": -74.04852087992711,
    "operationType": "rent",
    "createdDate": "2026-01-09",
    "source": "OLX"
  },
  {
    "id": "apt-0050",
    "title": "Oportunidad Apto en Cedritos - 102m²",
    "price": 317500000,
    "currency": "COP",
    "areaM2": 102,
    "bedrooms": 2,
    "bathrooms": 1,
    "neighborhood": "Cedritos",
    "city": "Bogota",
    "lat": 4.71824554882594,
    "lon": -74.05206080218177,
    "operationType": "sale",
    "createdDate": "2026-02-09",
    "source": "FincaRaiz"
  },
  {
    "id": "apt-0051",
    "title": "Se Arrienda Apartamento en Rosales - 98m²",
    "price": 5300000,
    "currency": "COP",
    "areaM2": 98,
    "bedrooms": 3,
    "bathrooms": 3,
    "neighborhood": "Rosales",
    "city": "Bogota",
    "lat": 4.6557602874024395,
    "lon": -74.0588495900988,
    "operationType": "rent",
    "createdDate": "2026-01-30",
    "source": "Properati"
  },
  {
    "id": "apt-0052",
    "title": "Arriendo Hermoso Apto en Rosales - 127m²",
    "price": 6000000,
    "currency": "COP",
    "areaM2": 127,
    "bedrooms": 4,
    "bathrooms": 2,
    "neighborhood": "Rosales",
    "city": "Bogota",
    "lat": 4.649285663548657,
    "lon": -74.05285264995028,
    "operationType": "rent",
    "createdDate": "2026-03-24",
    "source": "Ciencuadras"
  },
  {
    "id": "apt-0053",
    "title": "Oportunidad Apto en Rosales - 113m²",
    "price": 1378100000,
    "currency": "COP",
    "areaM2": 113,
    "bedrooms": 3,
    "bathrooms": 2,
    "neighborhood": "Rosales",
    "city": "Bogota",
    "lat": 4.659433764450656,
    "lon": -74.05872086948409,
    "operationType": "sale",
    "createdDate": "2026-01-11",
    "source": "Metrocuadrado"
  },
  {
    "id": "apt-0054",
    "title": "Arriendo Apartamento en Rosales - 125m²",
    "price": 7000000,
    "currency": "COP",
    "areaM2": 125,
    "bedrooms": 4,
    "bathrooms": 3,
    "neighborhood": "Rosales",
    "city": "Bogota",
    "lat": 4.655177057494108,
    "lon": -74.05119465485838,
    "operationType": "rent",
    "createdDate": "2026-01-22",
    "source": "Metrocuadrado"
  },
  {
    "id": "apt-0055",
    "title": "Se Arrienda Apartamento en Rosales - 154m²",
    "price": 4000000,
    "currency": "COP",
    "areaM2": 154,
    "bedrooms": 3,
    "bathrooms": 2,
    "neighborhood": "Rosales",
    "city": "Bogota",
    "lat": 4.659811181336465,
    "lon": -74.06047527263964,
    "operationType": "rent",
    "createdDate": "2026-03-15",
    "source": "OLX"
  },
  {
    "id": "apt-0056",
    "title": "Se Arrienda Apartamento en Rosales - 115m²",
    "price": 5100000,
    "currency": "COP",
    "areaM2": 115,
    "bedrooms": 3,
    "bathrooms": 3,
    "neighborhood": "Rosales",
    "city": "Bogota",
    "lat": 4.660034323126575,
    "lon": -74.06013120801013,
    "operationType": "rent",
    "createdDate": "2026-01-31",
    "source": "Ciencuadras"
  },
  {
    "id": "apt-0057",
    "title": "Venta Apartamento en Rosales - 114m²",
    "price": 952100000,
    "currency": "COP",
    "areaM2": 114,
    "bedrooms": 3,
    "bathrooms": 2,
    "neighborhood": "Rosales",
    "city": "Bogota",
    "lat": 4.6553879452351365,
    "lon": -74.0618043930524,
    "operationType": "sale",
    "createdDate": "2026-01-09",
    "source": "FincaRaiz"
  },
  {
    "id": "apt-0058",
    "title": "Arriendo Apartamento en Rosales - 180m²",
    "price": 6500000,
    "currency": "COP",
    "areaM2": 180,
    "bedrooms": 3,
    "bathrooms": 2,
    "neighborhood": "Rosales",
    "city": "Bogota",
    "lat": 4.655771749068304,
    "lon": -74.06121337200442,
    "operationType": "rent",
    "createdDate": "2026-03-17",
    "source": "Metrocuadrado"
  },
  {
    "id": "apt-0059",
    "title": "Apto en Arriendo en Santa Barbara - 63m²",
    "price": 2300000,
    "currency": "COP",
    "areaM2": 63,
    "bedrooms": 1,
    "bathrooms": 1,
    "neighborhood": "Santa Barbara",
    "city": "Bogota",
    "lat": 4.690206198138842,
    "lon": -74.04542785469901,
    "operationType": "rent",
    "createdDate": "2026-01-29",
    "source": "FincaRaiz"
  },
  {
    "id": "apt-0060",
    "title": "Se Vende Apartamento en Santa Barbara - 145m²",
    "price": 950200000,
    "currency": "COP",
    "areaM2": 145,
    "bedrooms": 4,
    "bathrooms": 2,
    "neighborhood": "Santa Barbara",
    "city": "Bogota",
    "lat": 4.684889064557281,
    "lon": -74.04049191838129,
    "operationType": "sale",
    "createdDate": "2026-03-08",
    "source": "Properati"
  },
  {
    "id": "apt-0061",
    "title": "Arriendo Apartamento en Santa Barbara - 85m²",
    "price": 4400000,
    "currency": "COP",
    "areaM2": 85,
    "bedrooms": 2,
    "bathrooms": 2,
    "neighborhood": "Santa Barbara",
    "city": "Bogota",
    "lat": 4.686159162464699,
    "lon": -74.0389563983385,
    "operationType": "rent",
    "createdDate": "2026-01-25",
    "source": "Properati"
  },
  {
    "id": "apt-0062",
    "title": "Arriendo Hermoso Apto en Santa Barbara - 101m²",
    "price": 5000000,
    "currency": "COP",
    "areaM2": 101,
    "bedrooms": 2,
    "bathrooms": 2,
    "neighborhood": "Santa Barbara",
    "city": "Bogota",
    "lat": 4.6788643675058745,
    "lon": -74.04757521422307,
    "operationType": "rent",
    "createdDate": "2026-02-02",
    "source": "OLX"
  },
  {
    "id": "apt-0063",
    "title": "Oportunidad Apto en Santa Barbara - 137m²",
    "price": 802800000,
    "currency": "COP",
    "areaM2": 137,
    "bedrooms": 4,
    "bathrooms": 4,
    "neighborhood": "Santa Barbara",
    "city": "Bogota",
    "lat": 4.684906053592363,
    "lon": -74.03995720589018,
    "operationType": "sale",
    "createdDate": "2026-02-26",
    "source": "OLX"
  },
  {
    "id": "apt-0064",
    "title": "Apto en Venta en Santa Barbara - 125m²",
    "price": 426400000,
    "currency": "COP",
    "areaM2": 125,
    "bedrooms": 3,
    "bathrooms": 3,
    "neighborhood": "Santa Barbara",
    "city": "Bogota",
    "lat": 4.687999476439785,
    "lon": -74.03879943349007,
    "operationType": "sale",
    "createdDate": "2026-02-05",
    "source": "Ciencuadras"
  },
  {
    "id": "apt-0065",
    "title": "Se Arrienda Apartamento en Santa Barbara - 64m²",
    "price": 4100000,
    "currency": "COP",
    "areaM2": 64,
    "bedrooms": 2,
    "bathrooms": 1,
    "neighborhood": "Santa Barbara",
    "city": "Bogota",
    "lat": 4.689334267503428,
    "lon": -74.04496603729386,
    "operationType": "rent",
    "createdDate": "2026-03-17",
    "source": "Metrocuadrado"
  },
  {
    "id": "apt-0066",
    "title": "Arriendo Apartamento en Santa Barbara - 124m²",
    "price": 5400000,
    "currency": "COP",
    "areaM2": 124,
    "bedrooms": 3,
    "bathrooms": 1,
    "neighborhood": "Santa Barbara",
    "city": "Bogota",
    "lat": 4.689666827398042,
    "lon": -74.05063189111429,
    "operationType": "rent",
    "createdDate": "2026-01-25",
    "source": "OLX"
  },
  {
    "id": "apt-0067",
    "title": "Arriendo Hermoso Apto en Kennedy - 49m²",
    "price": 1500000,
    "currency": "COP",
    "areaM2": 49,
    "bedrooms": 2,
    "bathrooms": 1,
    "neighborhood": "Kennedy",
    "city": "Bogota",
    "lat": 4.634615174316443,
    "lon": -74.14976525662492,
    "operationType": "rent",
    "createdDate": "2025-12-30",
    "source": "OLX"
  },
  {
    "id": "apt-0068",
    "title": "Venta Apartamento en Kennedy - 45m²",
    "price": 341100000,
    "currency": "COP",
    "areaM2": 45,
    "bedrooms": 2,
    "bathrooms": 1,
    "neighborhood": "Kennedy",
    "city": "Bogota",
    "lat": 4.628399194551072,
    "lon": -74.14673712455642,
    "operationType": "sale",
    "createdDate": "2026-01-06",
    "source": "OLX"
  },
  {
    "id": "apt-0069",
    "title": "Venta Apartamento en Kennedy - 58m²",
    "price": 341900000,
    "currency": "COP",
    "areaM2": 58,
    "bedrooms": 1,
    "bathrooms": 1,
    "neighborhood": "Kennedy",
    "city": "Bogota",
    "lat": 4.6209096671942715,
    "lon": -74.1582233517023,
    "operationType": "sale",
    "createdDate": "2026-01-01",
    "source": "Metrocuadrado"
  },
  {
    "id": "apt-0070",
    "title": "Arriendo Apartamento en Kennedy - 32m²",
    "price": 1600000,
    "currency": "COP",
    "areaM2": 32,
    "bedrooms": 1,
    "bathrooms": 1,
    "neighborhood": "Kennedy",
    "city": "Bogota",
    "lat": 4.624260855071024,
    "lon": -74.14480873334017,
    "operationType": "rent",
    "createdDate": "2026-02-01",
    "source": "Metrocuadrado"
  },
  {
    "id": "apt-0071",
    "title": "Venta Apartamento en Kennedy - 58m²",
    "price": 306800000,
    "currency": "COP",
    "areaM2": 58,
    "bedrooms": 2,
    "bathrooms": 2,
    "neighborhood": "Kennedy",
    "city": "Bogota",
    "lat": 4.62764820010322,
    "lon": -74.15370080373873,
    "operationType": "sale",
    "createdDate": "2026-02-24",
    "source": "FincaRaiz"
  },
  {
    "id": "apt-0072",
    "title": "Oportunidad Apto en Kennedy - 59m²",
    "price": 130800000,
    "currency": "COP",
    "areaM2": 59,
    "bedrooms": 1,
    "bathrooms": 1,
    "neighborhood": "Kennedy",
    "city": "Bogota",
    "lat": 4.620597042860088,
    "lon": -74.14750053386716,
    "operationType": "sale",
    "createdDate": "2026-02-07",
    "source": "Metrocuadrado"
  },
  {
    "id": "apt-0073",
    "title": "Oportunidad Apto en Kennedy - 45m²",
    "price": 285000000,
    "currency": "COP",
    "areaM2": 45,
    "bedrooms": 1,
    "bathrooms": 1,
    "neighborhood": "Kennedy",
    "city": "Bogota",
    "lat": 4.627504646125254,
    "lon": -74.15141251028693,
    "operationType": "sale",
    "createdDate": "2026-02-27",
    "source": "Properati"
  },
  {
    "id": "apt-0074",
    "title": "Se Vende Apartamento en Kennedy - 33m²",
    "price": 160700000,
    "currency": "COP",
    "areaM2": 33,
    "bedrooms": 1,
    "bathrooms": 1,
    "neighborhood": "Kennedy",
    "city": "Bogota",
    "lat": 4.6247084476111535,
    "lon": -74.15212091488775,
    "operationType": "sale",
    "createdDate": "2026-02-06",
    "source": "Properati"
  },
  {
    "id": "apt-0075",
    "title": "Apto en Venta en Kennedy - 35m²",
    "price": 183000000,
    "currency": "COP",
    "areaM2": 35,
    "bedrooms": 1,
    "bathrooms": 1,
    "neighborhood": "Kennedy",
    "city": "Bogota",
    "lat": 4.622763198871876,
    "lon": -74.14591646069327,
    "operationType": "sale",
    "createdDate": "2026-02-15",
    "source": "OLX"
  },
  {
    "id": "apt-0076",
    "title": "Arriendo Hermoso Apto en Fontibon - 49m²",
    "price": 1500000,
    "currency": "COP",
    "areaM2": 49,
    "bedrooms": 1,
    "bathrooms": 1,
    "neighborhood": "Fontibon",
    "city": "Bogota",
    "lat": 4.6710013631195775,
    "lon": -74.15108997492919,
    "operationType": "rent",
    "createdDate": "2026-01-08",
    "source": "OLX"
  },
  {
    "id": "apt-0077",
    "title": "Se Arrienda Apartamento en Fontibon - 42m²",
    "price": 1400000,
    "currency": "COP",
    "areaM2": 42,
    "bedrooms": 1,
    "bathrooms": 1,
    "neighborhood": "Fontibon",
    "city": "Bogota",
    "lat": 4.666021014945601,
    "lon": -74.14080169596551,
    "operationType": "rent",
    "createdDate": "2026-02-05",
    "source": "Metrocuadrado"
  },
  {
    "id": "apt-0078",
    "title": "Se Vende Apartamento en Fontibon - 63m²",
    "price": 220400000,
    "currency": "COP",
    "areaM2": 63,
    "bedrooms": 1,
    "bathrooms": 1,
    "neighborhood": "Fontibon",
    "city": "Bogota",
    "lat": 4.665531492619339,
    "lon": -74.14820342962695,
    "operationType": "sale",
    "createdDate": "2026-03-11",
    "source": "Properati"
  },
  {
    "id": "apt-0079",
    "title": "Arriendo Apartamento en Fontibon - 61m²",
    "price": 1200000,
    "currency": "COP",
    "areaM2": 61,
    "bedrooms": 1,
    "bathrooms": 1,
    "neighborhood": "Fontibon",
    "city": "Bogota",
    "lat": 4.673497089494483,
    "lon": -74.14541681142562,
    "operationType": "rent",
    "createdDate": "2026-02-12",
    "source": "Ciencuadras"
  },
  {
    "id": "apt-0080",
    "title": "Apto en Venta en Fontibon - 52m²",
    "price": 371900000,
    "currency": "COP",
    "areaM2": 52,
    "bedrooms": 1,
    "bathrooms": 1,
    "neighborhood": "Fontibon",
    "city": "Bogota",
    "lat": 4.67306364127627,
    "lon": -74.14038101153483,
    "operationType": "sale",
    "createdDate": "2026-01-05",
    "source": "Metrocuadrado"
  },
  {
    "id": "apt-0081",
    "title": "Apto en Arriendo en Fontibon - 76m²",
    "price": 1300000,
    "currency": "COP",
    "areaM2": 76,
    "bedrooms": 3,
    "bathrooms": 3,
    "neighborhood": "Fontibon",
    "city": "Bogota",
    "lat": 4.669528375308522,
    "lon": -74.14259610381451,
    "operationType": "rent",
    "createdDate": "2025-12-31",
    "source": "FincaRaiz"
  },
  {
    "id": "apt-0082",
    "title": "Arriendo Apartamento en Fontibon - 53m²",
    "price": 1200000,
    "currency": "COP",
    "areaM2": 53,
    "bedrooms": 2,
    "bathrooms": 2,
    "neighborhood": "Fontibon",
    "city": "Bogota",
    "lat": 4.676023846010234,
    "lon": -74.14322007096672,
    "operationType": "rent",
    "createdDate": "2026-01-11",
    "source": "Metrocuadrado"
  },
  {
    "id": "apt-0083",
    "title": "Venta Apartamento en Fontibon - 51m²",
    "price": 151100000,
    "currency": "COP",
    "areaM2": 51,
    "bedrooms": 2,
    "bathrooms": 2,
    "neighborhood": "Fontibon",
    "city": "Bogota",
    "lat": 4.675134841507892,
    "lon": -74.1447187348732,
    "operationType": "sale",
    "createdDate": "2026-01-28",
    "source": "Metrocuadrado"
  },
  {
    "id": "apt-0084",
    "title": "Apto en Venta en Fontibon - 59m²",
    "price": 160300000,
    "currency": "COP",
    "areaM2": 59,
    "bedrooms": 2,
    "bathrooms": 1,
    "neighborhood": "Fontibon",
    "city": "Bogota",
    "lat": 4.680393972354377,
    "lon": -74.1495066391672,
    "operationType": "sale",
    "createdDate": "2026-01-02",
    "source": "Metrocuadrado"
  },
  {
    "id": "apt-0085",
    "title": "Arriendo Hermoso Apto en Teusaquillo - 99m²",
    "price": 1100000,
    "currency": "COP",
    "areaM2": 99,
    "bedrooms": 3,
    "bathrooms": 1,
    "neighborhood": "Teusaquillo",
    "city": "Bogota",
    "lat": 4.636948359711979,
    "lon": -74.0829182929773,
    "operationType": "rent",
    "createdDate": "2026-03-20",
    "source": "Metrocuadrado"
  },
  {
    "id": "apt-0086",
    "title": "Se Arrienda Apartamento en Teusaquillo - 103m²",
    "price": 1300000,
    "currency": "COP",
    "areaM2": 103,
    "bedrooms": 2,
    "bathrooms": 2,
    "neighborhood": "Teusaquillo",
    "city": "Bogota",
    "lat": 4.638900159250852,
    "lon": -74.08402345841566,
    "operationType": "rent",
    "createdDate": "2026-01-20",
    "source": "Ciencuadras"
  },
  {
    "id": "apt-0087",
    "title": "Venta Apartamento en Teusaquillo - 52m²",
    "price": 507400000,
    "currency": "COP",
    "areaM2": 52,
    "bedrooms": 1,
    "bathrooms": 1,
    "neighborhood": "Teusaquillo",
    "city": "Bogota",
    "lat": 4.626413691337605,
    "lon": -74.07908957861885,
    "operationType": "sale",
    "createdDate": "2025-12-30",
    "source": "Properati"
  },
  {
    "id": "apt-0088",
    "title": "Arriendo Apartamento en Teusaquillo - 85m²",
    "price": 1800000,
    "currency": "COP",
    "areaM2": 85,
    "bedrooms": 2,
    "bathrooms": 1,
    "neighborhood": "Teusaquillo",
    "city": "Bogota",
    "lat": 4.630895084792185,
    "lon": -74.09030982258665,
    "operationType": "rent",
    "createdDate": "2026-03-17",
    "source": "Ciencuadras"
  },
  {
    "id": "apt-0089",
    "title": "Se Vende Apartamento en Teusaquillo - 110m²",
    "price": 525800000,
    "currency": "COP",
    "areaM2": 110,
    "bedrooms": 3,
    "bathrooms": 1,
    "neighborhood": "Teusaquillo",
    "city": "Bogota",
    "lat": 4.627603249332498,
    "lon": -74.08118836777302,
    "operationType": "sale",
    "createdDate": "2026-02-21",
    "source": "Ciencuadras"
  },
  {
    "id": "apt-0090",
    "title": "Apto en Venta en Teusaquillo - 74m²",
    "price": 204600000,
    "currency": "COP",
    "areaM2": 74,
    "bedrooms": 2,
    "bathrooms": 1,
    "neighborhood": "Teusaquillo",
    "city": "Bogota",
    "lat": 4.629173686260519,
    "lon": -74.08685493081421,
    "operationType": "sale",
    "createdDate": "2026-03-09",
    "source": "Properati"
  },
  {
    "id": "apt-0091",
    "title": "Arriendo Apartamento en Teusaquillo - 75m²",
    "price": 1400000,
    "currency": "COP",
    "areaM2": 75,
    "bedrooms": 2,
    "bathrooms": 1,
    "neighborhood": "Teusaquillo",
    "city": "Bogota",
    "lat": 4.62923607567161,
    "lon": -74.08827609910841,
    "operationType": "rent",
    "createdDate": "2026-01-15",
    "source": "Metrocuadrado"
  },
  {
    "id": "apt-0092",
    "title": "Apto en Arriendo en Teusaquillo - 72m²",
    "price": 2300000,
    "currency": "COP",
    "areaM2": 72,
    "bedrooms": 2,
    "bathrooms": 2,
    "neighborhood": "Teusaquillo",
    "city": "Bogota",
    "lat": 4.6277605227816485,
    "lon": -74.07789350913548,
    "operationType": "rent",
    "createdDate": "2026-03-12",
    "source": "FincaRaiz"
  },
  {
    "id": "apt-0093",
    "title": "Arriendo Apartamento en La Candelaria - 55m²",
    "price": 800000,
    "currency": "COP",
    "areaM2": 55,
    "bedrooms": 1,
    "bathrooms": 1,
    "neighborhood": "La Candelaria",
    "city": "Bogota",
    "lat": 4.589785396612981,
    "lon": -74.07583901830189,
    "operationType": "rent",
    "createdDate": "2026-03-24",
    "source": "Ciencuadras"
  },
  {
    "id": "apt-0094",
    "title": "Se Vende Apartamento en La Candelaria - 51m²",
    "price": 194600000,
    "currency": "COP",
    "areaM2": 51,
    "bedrooms": 1,
    "bathrooms": 1,
    "neighborhood": "La Candelaria",
    "city": "Bogota",
    "lat": 4.589131606754038,
    "lon": -74.06908517243116,
    "operationType": "sale",
    "createdDate": "2026-02-13",
    "source": "FincaRaiz"
  },
  {
    "id": "apt-0095",
    "title": "Venta Apartamento en La Candelaria - 47m²",
    "price": 183600000,
    "currency": "COP",
    "areaM2": 47,
    "bedrooms": 2,
    "bathrooms": 1,
    "neighborhood": "La Candelaria",
    "city": "Bogota",
    "lat": 4.60089443088639,
    "lon": -74.0713000720528,
    "operationType": "sale",
    "createdDate": "2026-01-20",
    "source": "Ciencuadras"
  },
  {
    "id": "apt-0096",
    "title": "Apto en Arriendo en La Candelaria - 66m²",
    "price": 1500000,
    "currency": "COP",
    "areaM2": 66,
    "bedrooms": 1,
    "bathrooms": 1,
    "neighborhood": "La Candelaria",
    "city": "Bogota",
    "lat": 4.595485136658871,
    "lon": -74.07030811163486,
    "operationType": "rent",
    "createdDate": "2026-03-07",
    "source": "Metrocuadrado"
  },
  {
    "id": "apt-0097",
    "title": "Se Arrienda Apartamento en La Candelaria - 73m²",
    "price": 1700000,
    "currency": "COP",
    "areaM2": 73,
    "bedrooms": 2,
    "bathrooms": 1,
    "neighborhood": "La Candelaria",
    "city": "Bogota",
    "lat": 4.60019505920419,
    "lon": -74.06563992931194,
    "operationType": "rent",
    "createdDate": "2026-01-20",
    "source": "Metrocuadrado"
  },
  {
    "id": "apt-0098",
    "title": "Venta Apartamento en La Candelaria - 35m²",
    "price": 344800000,
    "currency": "COP",
    "areaM2": 35,
    "bedrooms": 1,
    "bathrooms": 1,
    "neighborhood": "La Candelaria",
    "city": "Bogota",
    "lat": 4.59983411646712,
    "lon": -74.07200450842316,
    "operationType": "sale",
    "createdDate": "2026-02-14",
    "source": "Metrocuadrado"
  },
  {
    "id": "apt-0099",
    "title": "Se Arrienda Apartamento en La Candelaria - 41m²",
    "price": 900000,
    "currency": "COP",
    "areaM2": 41,
    "bedrooms": 1,
    "bathrooms": 1,
    "neighborhood": "La Candelaria",
    "city": "Bogota",
    "lat": 4.588934130770559,
    "lon": -74.07306402522751,
    "operationType": "rent",
    "createdDate": "2026-02-27",
    "source": "Properati"
  },
  {
    "id": "apt-0100",
    "title": "Apto en Venta en La Candelaria - 35m²",
    "price": 434600000,
    "currency": "COP",
    "areaM2": 35,
    "bedrooms": 1,
    "bathrooms": 1,
    "neighborhood": "La Candelaria",
    "city": "Bogota",
    "lat": 4.59841394540287,
    "lon": -74.07581957416546,
    "operationType": "sale",
    "createdDate": "2026-01-16",
    "source": "OLX"
  },
  {
    "id": "apt-0101",
    "title": "Oportunidad Apto en La Candelaria - 89m²",
    "price": 354000000,
    "currency": "COP",
    "areaM2": 89,
    "bedrooms": 3,
    "bathrooms": 1,
    "neighborhood": "La Candelaria",
    "city": "Bogota",
    "lat": 4.590861566938797,
    "lon": -74.07864436073895,
    "operationType": "sale",
    "createdDate": "2026-01-23",
    "source": "OLX"
  },
  {
    "id": "apt-0102",
    "title": "Se Vende Apartamento en La Candelaria - 61m²",
    "price": 363700000,
    "currency": "COP",
    "areaM2": 61,
    "bedrooms": 2,
    "bathrooms": 2,
    "neighborhood": "La Candelaria",
    "city": "Bogota",
    "lat": 4.5971933015624,
    "lon": -74.0711805913897,
    "operationType": "sale",
    "createdDate": "2026-01-31",
    "source": "Ciencuadras"
  },
  {
    "id": "apt-0103",
    "title": "Se Arrienda Apartamento en Engativa - 54m²",
    "price": 900000,
    "currency": "COP",
    "areaM2": 54,
    "bedrooms": 2,
    "bathrooms": 1,
    "neighborhood": "Engativa",
    "city": "Bogota",
    "lat": 4.7029076177002,
    "lon": -74.11966923766879,
    "operationType": "rent",
    "createdDate": "2026-01-12",
    "source": "Metrocuadrado"
  },
  {
    "id": "apt-0104",
    "title": "Arriendo Apartamento en Engativa - 48m²",
    "price": 800000,
    "currency": "COP",
    "areaM2": 48,
    "bedrooms": 1,
    "bathrooms": 1,
    "neighborhood": "Engativa",
    "city": "Bogota",
    "lat": 4.7010921142074205,
    "lon": -74.10783642660066,
    "operationType": "rent",
    "createdDate": "2026-03-15",
    "source": "Metrocuadrado"
  },
  {
    "id": "apt-0105",
    "title": "Apto en Venta en Engativa - 44m²",
    "price": 186100000,
    "currency": "COP",
    "areaM2": 44,
    "bedrooms": 1,
    "bathrooms": 1,
    "neighborhood": "Engativa",
    "city": "Bogota",
    "lat": 4.706408813536548,
    "lon": -74.12007084357465,
    "operationType": "sale",
    "createdDate": "2026-01-11",
    "source": "FincaRaiz"
  },
  {
    "id": "apt-0106",
    "title": "Venta Apartamento en Engativa - 39m²",
    "price": 231900000,
    "currency": "COP",
    "areaM2": 39,
    "bedrooms": 1,
    "bathrooms": 1,
    "neighborhood": "Engativa",
    "city": "Bogota",
    "lat": 4.702829706506179,
    "lon": -74.10912267496168,
    "operationType": "sale",
    "createdDate": "2026-01-06",
    "source": "Properati"
  },
  {
    "id": "apt-0107",
    "title": "Se Arrienda Apartamento en Engativa - 58m²",
    "price": 1000000,
    "currency": "COP",
    "areaM2": 58,
    "bedrooms": 1,
    "bathrooms": 1,
    "neighborhood": "Engativa",
    "city": "Bogota",
    "lat": 4.706352927029462,
    "lon": -74.11435536773489,
    "operationType": "rent",
    "createdDate": "2026-01-11",
    "source": "OLX"
  },
  {
    "id": "apt-0108",
    "title": "Apto en Arriendo en Engativa - 52m²",
    "price": 1900000,
    "currency": "COP",
    "areaM2": 52,
    "bedrooms": 1,
    "bathrooms": 1,
    "neighborhood": "Engativa",
    "city": "Bogota",
    "lat": 4.711184137928005,
    "lon": -74.11119383371685,
    "operationType": "rent",
    "createdDate": "2026-03-03",
    "source": "Ciencuadras"
  },
  {
    "id": "apt-0109",
    "title": "Arriendo Apartamento en Engativa - 55m²",
    "price": 1000000,
    "currency": "COP",
    "areaM2": 55,
    "bedrooms": 2,
    "bathrooms": 1,
    "neighborhood": "Engativa",
    "city": "Bogota",
    "lat": 4.697979565959405,
    "lon": -74.11543480664672,
    "operationType": "rent",
    "createdDate": "2026-02-20",
    "source": "FincaRaiz"
  },
  {
    "id": "apt-0110",
    "title": "Oportunidad Apto en Engativa - 74m²",
    "price": 203600000,
    "currency": "COP",
    "areaM2": 74,
    "bedrooms": 2,
    "bathrooms": 1,
    "neighborhood": "Engativa",
    "city": "Bogota",
    "lat": 4.698742123445256,
    "lon": -74.10913114791329,
    "operationType": "sale",
    "createdDate": "2026-02-17",
    "source": "OLX"
  },
  {
    "id": "apt-0111",
    "title": "Venta Apartamento en Engativa - 44m²",
    "price": 266800000,
    "currency": "COP",
    "areaM2": 44,
    "bedrooms": 1,
    "bathrooms": 1,
    "neighborhood": "Engativa",
    "city": "Bogota",
    "lat": 4.712090285329232,
    "lon": -74.10657446838736,
    "operationType": "sale",
    "createdDate": "2026-03-17",
    "source": "OLX"
  },
  {
    "id": "apt-0112",
    "title": "Se Vende Apartamento en Engativa - 76m²",
    "price": 240700000,
    "currency": "COP",
    "areaM2": 76,
    "bedrooms": 2,
    "bathrooms": 1,
    "neighborhood": "Engativa",
    "city": "Bogota",
    "lat": 4.7007874258591675,
    "lon": -74.11373349330643,
    "operationType": "sale",
    "createdDate": "2026-01-29",
    "source": "Ciencuadras"
  },
  {
    "id": "apt-0113",
    "title": "Se Vende Apartamento en Engativa - 42m²",
    "price": 353800000,
    "currency": "COP",
    "areaM2": 42,
    "bedrooms": 1,
    "bathrooms": 1,
    "neighborhood": "Engativa",
    "city": "Bogota",
    "lat": 4.700598697523213,
    "lon": -74.10569063422008,
    "operationType": "sale",
    "createdDate": "2026-02-18",
    "source": "OLX"
  },
  {
    "id": "apt-0114",
    "title": "Apto en Arriendo en Engativa - 39m²",
    "price": 1000000,
    "currency": "COP",
    "areaM2": 39,
    "bedrooms": 1,
    "bathrooms": 1,
    "neighborhood": "Engativa",
    "city": "Bogota",
    "lat": 4.700451448914084,
    "lon": -74.1204980066996,
    "operationType": "rent",
    "createdDate": "2026-03-05",
    "source": "Metrocuadrado"
  },
  {
    "id": "apt-0115",
    "title": "Apto en Venta en Bosa - 31m²",
    "price": 169300000,
    "currency": "COP",
    "areaM2": 31,
    "bedrooms": 1,
    "bathrooms": 1,
    "neighborhood": "Bosa",
    "city": "Bogota",
    "lat": 4.611412702939392,
    "lon": -74.18070165782814,
    "operationType": "sale",
    "createdDate": "2026-03-15",
    "source": "FincaRaiz"
  },
  {
    "id": "apt-0116",
    "title": "Oportunidad Apto en Bosa - 64m²",
    "price": 113300000,
    "currency": "COP",
    "areaM2": 64,
    "bedrooms": 2,
    "bathrooms": 1,
    "neighborhood": "Bosa",
    "city": "Bogota",
    "lat": 4.614317404505627,
    "lon": -74.18638245685435,
    "operationType": "sale",
    "createdDate": "2026-01-01",
    "source": "Metrocuadrado"
  },
  {
    "id": "apt-0117",
    "title": "Venta Apartamento en Bosa - 46m²",
    "price": 105700000,
    "currency": "COP",
    "areaM2": 46,
    "bedrooms": 1,
    "bathrooms": 1,
    "neighborhood": "Bosa",
    "city": "Bogota",
    "lat": 4.6059515523495635,
    "lon": -74.18125957833534,
    "operationType": "sale",
    "createdDate": "2025-12-31",
    "source": "Ciencuadras"
  },
  {
    "id": "apt-0118",
    "title": "Arriendo Hermoso Apto en Bosa - 65m²",
    "price": 1200000,
    "currency": "COP",
    "areaM2": 65,
    "bedrooms": 1,
    "bathrooms": 1,
    "neighborhood": "Bosa",
    "city": "Bogota",
    "lat": 4.604287201190635,
    "lon": -74.17900949341899,
    "operationType": "rent",
    "createdDate": "2026-03-13",
    "source": "Metrocuadrado"
  },
  {
    "id": "apt-0119",
    "title": "Arriendo Hermoso Apto en Bosa - 41m²",
    "price": 700000,
    "currency": "COP",
    "areaM2": 41,
    "bedrooms": 1,
    "bathrooms": 1,
    "neighborhood": "Bosa",
    "city": "Bogota",
    "lat": 4.6077204529915194,
    "lon": -74.18134650282036,
    "operationType": "rent",
    "createdDate": "2026-02-02",
    "source": "Properati"
  },
  {
    "id": "apt-0120",
    "title": "Arriendo Hermoso Apto en Bosa - 31m²",
    "price": 600000,
    "currency": "COP",
    "areaM2": 31,
    "bedrooms": 1,
    "bathrooms": 1,
    "neighborhood": "Bosa",
    "city": "Bogota",
    "lat": 4.612704620212042,
    "lon": -74.18744806651999,
    "operationType": "rent",
    "createdDate": "2025-12-30",
    "source": "Properati"
  },
  {
    "id": "apt-0121",
    "title": "Apto en Arriendo en Bosa - 61m²",
    "price": 1400000,
    "currency": "COP",
    "areaM2": 61,
    "bedrooms": 1,
    "bathrooms": 1,
    "neighborhood": "Bosa",
    "city": "Bogota",
    "lat": 4.610003788931764,
    "lon": -74.19031937299839,
    "operationType": "rent",
    "createdDate": "2026-01-17",
    "source": "Metrocuadrado"
  },
  {
    "id": "apt-0122",
    "title": "Oportunidad Apto en Bosa - 46m²",
    "price": 209500000,
    "currency": "COP",
    "areaM2": 46,
    "bedrooms": 2,
    "bathrooms": 1,
    "neighborhood": "Bosa",
    "city": "Bogota",
    "lat": 4.60578642577658,
    "lon": -74.18154188916046,
    "operationType": "sale",
    "createdDate": "2026-01-27",
    "source": "Ciencuadras"
  },
  {
    "id": "apt-0123",
    "title": "Se Arrienda Apartamento en Bosa - 39m²",
    "price": 800000,
    "currency": "COP",
    "areaM2": 39,
    "bedrooms": 1,
    "bathrooms": 1,
    "neighborhood": "Bosa",
    "city": "Bogota",
    "lat": 4.610643138678412,
    "lon": -74.1847681860931,
    "operationType": "rent",
    "createdDate": "2026-01-23",
    "source": "Ciencuadras"
  },
  {
    "id": "apt-0124",
    "title": "Apto en Arriendo en Zipaquira - 75m²",
    "price": 900000,
    "currency": "COP",
    "areaM2": 75,
    "bedrooms": 3,
    "bathrooms": 3,
    "neighborhood": "Zipaquira",
    "city": "Zipaquira",
    "lat": 5.022274905134249,
    "lon": -73.99266935214322,
    "operationType": "rent",
    "createdDate": "2025-12-31",
    "source": "Metrocuadrado"
  },
  {
    "id": "apt-0125",
    "title": "Arriendo Hermoso Apto en Zipaquira - 55m²",
    "price": 1600000,
    "currency": "COP",
    "areaM2": 55,
    "bedrooms": 2,
    "bathrooms": 1,
    "neighborhood": "Zipaquira",
    "city": "Zipaquira",
    "lat": 5.020614458929389,
    "lon": -73.99978870423631,
    "operationType": "rent",
    "createdDate": "2025-12-31",
    "source": "OLX"
  },
  {
    "id": "apt-0126",
    "title": "Se Arrienda Apartamento en Zipaquira - 83m²",
    "price": 1200000,
    "currency": "COP",
    "areaM2": 83,
    "bedrooms": 3,
    "bathrooms": 2,
    "neighborhood": "Zipaquira",
    "city": "Zipaquira",
    "lat": 5.026005175953736,
    "lon": -73.9980077182171,
    "operationType": "rent",
    "createdDate": "2026-02-08",
    "source": "Metrocuadrado"
  },
  {
    "id": "apt-0127",
    "title": "Se Vende Apartamento en Zipaquira - 58m²",
    "price": 143400000,
    "currency": "COP",
    "areaM2": 58,
    "bedrooms": 1,
    "bathrooms": 1,
    "neighborhood": "Zipaquira",
    "city": "Zipaquira",
    "lat": 5.028414219375154,
    "lon": -73.99421495328956,
    "operationType": "sale",
    "createdDate": "2026-03-09",
    "source": "FincaRaiz"
  },
  {
    "id": "apt-0128",
    "title": "Venta Apartamento en Zipaquira - 79m²",
    "price": 142300000,
    "currency": "COP",
    "areaM2": 79,
    "bedrooms": 2,
    "bathrooms": 2,
    "neighborhood": "Zipaquira",
    "city": "Zipaquira",
    "lat": 5.026622815041452,
    "lon": -73.99734757581152,
    "operationType": "sale",
    "createdDate": "2026-03-09",
    "source": "Ciencuadras"
  },
  {
    "id": "apt-0129",
    "title": "Se Arrienda Apartamento en Zipaquira - 45m²",
    "price": 1600000,
    "currency": "COP",
    "areaM2": 45,
    "bedrooms": 1,
    "bathrooms": 1,
    "neighborhood": "Zipaquira",
    "city": "Zipaquira",
    "lat": 5.028536301732097,
    "lon": -73.99737678110728,
    "operationType": "rent",
    "createdDate": "2026-02-13",
    "source": "FincaRaiz"
  },
  {
    "id": "apt-0130",
    "title": "Se Arrienda Apartamento en Zipaquira - 63m²",
    "price": 700000,
    "currency": "COP",
    "areaM2": 63,
    "bedrooms": 2,
    "bathrooms": 2,
    "neighborhood": "Zipaquira",
    "city": "Zipaquira",
    "lat": 5.026968080867518,
    "lon": -73.99946483981886,
    "operationType": "rent",
    "createdDate": "2026-01-10",
    "source": "OLX"
  },
  {
    "id": "apt-0131",
    "title": "Apto en Arriendo en Zipaquira - 55m²",
    "price": 1500000,
    "currency": "COP",
    "areaM2": 55,
    "bedrooms": 1,
    "bathrooms": 1,
    "neighborhood": "Zipaquira",
    "city": "Zipaquira",
    "lat": 5.017933599670822,
    "lon": -73.99699024198668,
    "operationType": "rent",
    "createdDate": "2026-02-04",
    "source": "Metrocuadrado"
  },
  {
    "id": "apt-0132",
    "title": "Arriendo Hermoso Apto en Chia - 58m²",
    "price": 2900000,
    "currency": "COP",
    "areaM2": 58,
    "bedrooms": 2,
    "bathrooms": 1,
    "neighborhood": "Chia",
    "city": "Chia",
    "lat": 4.87001997223964,
    "lon": -74.0593265646266,
    "operationType": "rent",
    "createdDate": "2026-03-02",
    "source": "OLX"
  },
  {
    "id": "apt-0133",
    "title": "Se Vende Apartamento en Chia - 52m²",
    "price": 546100000,
    "currency": "COP",
    "areaM2": 52,
    "bedrooms": 2,
    "bathrooms": 2,
    "neighborhood": "Chia",
    "city": "Chia",
    "lat": 4.863986436506256,
    "lon": -74.04996158839619,
    "operationType": "sale",
    "createdDate": "2026-02-18",
    "source": "OLX"
  },
  {
    "id": "apt-0134",
    "title": "Apto en Venta en Chia - 106m²",
    "price": 577500000,
    "currency": "COP",
    "areaM2": 106,
    "bedrooms": 2,
    "bathrooms": 1,
    "neighborhood": "Chia",
    "city": "Chia",
    "lat": 4.866977441982345,
    "lon": -74.06013257516281,
    "operationType": "sale",
    "createdDate": "2026-03-11",
    "source": "Properati"
  },
  {
    "id": "apt-0135",
    "title": "Se Vende Apartamento en Chia - 128m²",
    "price": 264900000,
    "currency": "COP",
    "areaM2": 128,
    "bedrooms": 3,
    "bathrooms": 1,
    "neighborhood": "Chia",
    "city": "Chia",
    "lat": 4.863615378914509,
    "lon": -74.06132652998281,
    "operationType": "sale",
    "createdDate": "2026-02-21",
    "source": "Properati"
  },
  {
    "id": "apt-0136",
    "title": "Arriendo Apartamento en Chia - 65m²",
    "price": 2700000,
    "currency": "COP",
    "areaM2": 65,
    "bedrooms": 1,
    "bathrooms": 1,
    "neighborhood": "Chia",
    "city": "Chia",
    "lat": 4.867441242322271,
    "lon": -74.05004026565425,
    "operationType": "rent",
    "createdDate": "2026-03-03",
    "source": "Properati"
  },
  {
    "id": "apt-0137",
    "title": "Apto en Venta en Chia - 58m²",
    "price": 275600000,
    "currency": "COP",
    "areaM2": 58,
    "bedrooms": 1,
    "bathrooms": 1,
    "neighborhood": "Chia",
    "city": "Chia",
    "lat": 4.870499965969474,
    "lon": -74.04707195106575,
    "operationType": "sale",
    "createdDate": "2026-03-12",
    "source": "OLX"
  },
  {
    "id": "apt-0138",
    "title": "Apto en Arriendo en Chia - 64m²",
    "price": 1900000,
    "currency": "COP",
    "areaM2": 64,
    "bedrooms": 2,
    "bathrooms": 2,
    "neighborhood": "Chia",
    "city": "Chia",
    "lat": 4.858143164638563,
    "lon": -74.05283182296188,
    "operationType": "rent",
    "createdDate": "2026-02-18",
    "source": "Properati"
  },
  {
    "id": "apt-0139",
    "title": "Arriendo Hermoso Apto en Chia - 70m²",
    "price": 2300000,
    "currency": "COP",
    "areaM2": 70,
    "bedrooms": 2,
    "bathrooms": 1,
    "neighborhood": "Chia",
    "city": "Chia",
    "lat": 4.860669282138971,
    "lon": -74.06137501338345,
    "operationType": "rent",
    "createdDate": "2026-03-21",
    "source": "Properati"
  },
  {
    "id": "apt-0140",
    "title": "Apto en Arriendo en Chia - 114m²",
    "price": 2200000,
    "currency": "COP",
    "areaM2": 114,
    "bedrooms": 4,
    "bathrooms": 1,
    "neighborhood": "Chia",
    "city": "Chia",
    "lat": 4.8674913579868075,
    "lon": -74.0477462921848,
    "operationType": "rent",
    "createdDate": "2026-02-04",
    "source": "Metrocuadrado"
  },
  {
    "id": "apt-0141",
    "title": "Arriendo Apartamento en Soacha - 58m²",
    "price": 1300000,
    "currency": "COP",
    "areaM2": 58,
    "bedrooms": 2,
    "bathrooms": 2,
    "neighborhood": "Soacha",
    "city": "Soacha",
    "lat": 4.577898240317496,
    "lon": -74.22427491653504,
    "operationType": "rent",
    "createdDate": "2026-03-08",
    "source": "OLX"
  },
  {
    "id": "apt-0142",
    "title": "Arriendo Hermoso Apto en Soacha - 54m²",
    "price": 1400000,
    "currency": "COP",
    "areaM2": 54,
    "bedrooms": 2,
    "bathrooms": 1,
    "neighborhood": "Soacha",
    "city": "Soacha",
    "lat": 4.581061632806026,
    "lon": -74.21713738654566,
    "operationType": "rent",
    "createdDate": "2026-02-05",
    "source": "OLX"
  },
  {
    "id": "apt-0143",
    "title": "Arriendo Hermoso Apto en Soacha - 54m²",
    "price": 1300000,
    "currency": "COP",
    "areaM2": 54,
    "bedrooms": 2,
    "bathrooms": 1,
    "neighborhood": "Soacha",
    "city": "Soacha",
    "lat": 4.579452012066219,
    "lon": -74.21003314789714,
    "operationType": "rent",
    "createdDate": "2026-01-30",
    "source": "OLX"
  },
  {
    "id": "apt-0144",
    "title": "Oportunidad Apto en Soacha - 42m²",
    "price": 145300000,
    "currency": "COP",
    "areaM2": 42,
    "bedrooms": 1,
    "bathrooms": 1,
    "neighborhood": "Soacha",
    "city": "Soacha",
    "lat": 4.578888612930559,
    "lon": -74.21408241652425,
    "operationType": "sale",
    "createdDate": "2026-02-05",
    "source": "Properati"
  },
  {
    "id": "apt-0145",
    "title": "Venta Apartamento en Soacha - 32m²",
    "price": 231000000,
    "currency": "COP",
    "areaM2": 32,
    "bedrooms": 1,
    "bathrooms": 1,
    "neighborhood": "Soacha",
    "city": "Soacha",
    "lat": 4.579684974261731,
    "lon": -74.20963752973651,
    "operationType": "sale",
    "createdDate": "2026-01-07",
    "source": "Properati"
  },
  {
    "id": "apt-0146",
    "title": "Arriendo Hermoso Apto en Soacha - 54m²",
    "price": 700000,
    "currency": "COP",
    "areaM2": 54,
    "bedrooms": 2,
    "bathrooms": 2,
    "neighborhood": "Soacha",
    "city": "Soacha",
    "lat": 4.573212494261295,
    "lon": -74.21260884642238,
    "operationType": "rent",
    "createdDate": "2026-01-29",
    "source": "Ciencuadras"
  },
  {
    "id": "apt-0147",
    "title": "Arriendo Apartamento en Soacha - 60m²",
    "price": 1100000,
    "currency": "COP",
    "areaM2": 60,
    "bedrooms": 1,
    "bathrooms": 1,
    "neighborhood": "Soacha",
    "city": "Soacha",
    "lat": 4.577167587149113,
    "lon": -74.21936271182295,
    "operationType": "rent",
    "createdDate": "2026-03-11",
    "source": "Ciencuadras"
  },
  {
    "id": "apt-0148",
    "title": "Se Vende Apartamento en Soacha - 41m²",
    "price": 130800000,
    "currency": "COP",
    "areaM2": 41,
    "bedrooms": 1,
    "bathrooms": 1,
    "neighborhood": "Soacha",
    "city": "Soacha",
    "lat": 4.574311396678734,
    "lon": -74.22335592513146,
    "operationType": "sale",
    "createdDate": "2026-01-07",
    "source": "OLX"
  },
  {
    "id": "apt-0149",
    "title": "Apto en Arriendo en Soacha - 44m²",
    "price": 700000,
    "currency": "COP",
    "areaM2": 44,
    "bedrooms": 1,
    "bathrooms": 1,
    "neighborhood": "Soacha",
    "city": "Soacha",
    "lat": 4.5762730714755815,
    "lon": -74.22348762987134,
    "operationType": "rent",
    "createdDate": "2026-02-25",
    "source": "OLX"
  },
  {
    "id": "apt-0150",
    "title": "Se Arrienda Apartamento en Soacha - 47m²",
    "price": 1100000,
    "currency": "COP",
    "areaM2": 47,
    "bedrooms": 2,
    "bathrooms": 2,
    "neighborhood": "Soacha",
    "city": "Soacha",
    "lat": 4.574598160829952,
    "lon": -74.21871083785054,
    "operationType": "rent",
    "createdDate": "2026-02-05",
    "source": "FincaRaiz"
  },
  {
    "id": "apt-0151",
    "title": "Se Arrienda Apartamento en Soacha - 35m²",
    "price": 1100000,
    "currency": "COP",
    "areaM2": 35,
    "bedrooms": 1,
    "bathrooms": 1,
    "neighborhood": "Soacha",
    "city": "Soacha",
    "lat": 4.5857106695070025,
    "lon": -74.21577758962454,
    "operationType": "rent",
    "createdDate": "2026-03-10",
    "source": "Properati"
  }
]