[
  {
    "id": "apt-0001",
    "title": "Arriendo Hermoso Apto en Chapinero - 61m²",
    "price": 4100000,
    "currency": "COP",
    "areaM2": 61,
    "bedrooms": 1,
    "bathrooms": 1,
    "neighborhood": "Chapinero",
    "city": "Bogota",
    "lat": 4.644184771623634,
    "lon": -74.06254326432622,
    "operationType": "rent",
    "createdDate": "2026-03-03",
    "source": "FincaRaiz",
    "url": "https://www.fincaraiz.com.co/finca-raiz?search=apartamento%20arriendo%20Chapinero%20bogota"
  },
  {
    "id": "apt-0002",
    "title": "Venta Apartamento en Chapinero - 112m²",
    "price": 789300000,
    "currency": "COP",
    "areaM2": 112,
    "bedrooms": 3,
    "bathrooms": 1,
    "neighborhood": "Chapinero",
    "city": "Bogota",
    "lat": 4.641349857308296,
    "lon": -74.06894814003068,
    "operationType": "sale",
    "createdDate": "2026-01-15",
    "source": "Metrocuadrado",
    "url": "https://www.metrocuadrado.com/s/bogota/apartamentos?search=apartamento%20venta%20Chapinero%20bogota"
  },
  {
    "id": "apt-0003",
    "title": "Arriendo Hermoso Apto en Chapinero - 99m²",
    "price": 4500000,
    "currency": "COP",
    "areaM2": 99,
    "bedrooms": 2,
    "bathrooms": 2,
    "neighborhood": "Chapinero",
    "city": "Bogota",
    "lat": 4.643468946244539,
    "lon": -74.06342040518757,
    "operationType": "rent",
    "createdDate": "2026-02-14",
    "source": "FincaRaiz",
    "url": "https://www.fincaraiz.com.co/finca-raiz?search=apartamento%20arriendo%20Chapinero%20bogota"
  },
  {
    "id": "apt-0004",
    "title": "Oportunidad Apto en Chapinero - 41m²",
    "price": 307400000,
    "currency": "COP",
    "areaM2": 41,
    "bedrooms": 1,
    "bathrooms": 1,
    "neighborhood": "Chapinero",
    "city": "Bogota",
    "lat": 4.648287562460441,
    "lon": -74.06193770223385,
    "operationType": "sale",
    "createdDate": "2026-01-18",
    "source": "Ciencuadras",
    "url": "https://www.ciencuadras.com/buscar?q=apartamento%20venta%20Chapinero%20bogota"
  },
  {
    "id": "apt-0005",
    "title": "Apto en Arriendo en Chapinero - 70m²",
    "price": 2700000,
    "currency": "COP",
    "areaM2": 70,
    "bedrooms": 2,
    "bathrooms": 1,
    "neighborhood": "Chapinero",
    "city": "Bogota",
    "lat": 4.637292106251039,
    "lon": -74.06257012759947,
    "operationType": "rent",
    "createdDate": "2026-03-11",
    "source": "OLX",
    "url": "https://www.google.com/search?q=apartamento%20arriendo%20Chapinero%20bogota+site:olx.com.co"
  },
  {
    "id": "apt-0006",
    "title": "Se Arrienda Apartamento en Chapinero - 55m²",
    "price": 2700000,
    "currency": "COP",
    "areaM2": 55,
    "bedrooms": 1,
    "bathrooms": 1,
    "neighborhood": "Chapinero",
    "city": "Bogota",
    "lat": 4.637836936956585,
    "lon": -74.0556004637383,
    "operationType": "rent",
    "createdDate": "2026-02-16",
    "source": "Ciencuadras",
    "url": "https://www.ciencuadras.com/buscar?q=apartamento%20arriendo%20Chapinero%20bogota"
  },
  {
    "id": "apt-0007",
    "title": "Apto en Arriendo en Chapinero - 84m²",
    "price": 2200000,
    "currency": "COP",
    "areaM2": 84,
    "bedrooms": 3,
    "bathrooms": 1,
    "neighborhood": "Chapinero",
    "city": "Bogota",
    "lat": 4.643084530567363,
    "lon": -74.05929468846256,
    "operationType": "rent",
    "createdDate": "2026-03-09",
    "source": "OLX",
    "url": "https://www.google.com/search?q=apartamento%20arriendo%20Chapinero%20bogota+site:olx.com.co"
  },
  {
    "id": "apt-0008",
    "title": "Apto en Arriendo en Usaquen - 53m²",
    "price": 2500000,
    "currency": "COP",
    "areaM2": 53,
    "bedrooms": 1,
    "bathrooms": 1,
    "neighborhood": "Usaquen",
    "city": "Bogota",
    "lat": 4.692240858022347,
    "lon": -74.03189913028422,
    "operationType": "rent",
    "createdDate": "2026-02-08",
    "source": "OLX",
    "url": "https://www.google.com/search?q=apartamento%20arriendo%20Usaquen%20bogota+site:olx.com.co"
  },
  {
    "id": "apt-0009",
    "title": "Oportunidad Apto en Usaquen - 95m²",
    "price": 1186900000,
    "currency": "COP",
    "areaM2": 95,
    "bedrooms": 3,
    "bathrooms": 1,
    "neighborhood": "Usaquen",
    "city": "Bogota",
    "lat": 4.695495693002358,
    "lon": -74.03288764673181,
    "operationType": "sale",
    "createdDate": "2026-01-05",
    "source": "OLX",
    "url": "https://www.google.com/search?q=apartamento%20venta%20Usaquen%20bogota+site:olx.com.co"
  },
  {
    "id": "apt-0010",
    "title": "Se Arrienda Apartamento en Usaquen - 91m²",
    "price": 6900000,
    "currency": "COP",
    "areaM2": 91,
    "bedrooms": 3,
    "bathrooms": 3,
    "neighborhood": "Usaquen",
    "city": "Bogota",
    "lat": 4.70090155699188,
    "lon": -74.03153161713391,
    "operationType": "rent",
    "createdDate": "2026-02-26",
    "source": "OLX",
    "url": "https://www.google.com/search?q=apartamento%20arriendo%20Usaquen%20bogota+site:olx.com.co"
  },
  {
    "id": "apt-0011",
    "title": "Apto en Venta en Usaquen - 108m²",
    "price": 649100000,
    "currency": "COP",
    "areaM2": 108,
    "bedrooms": 3,
    "bathrooms": 2,
    "neighborhood": "Usaquen",
    "city": "Bogota",
    "lat": 4.695343585557624,
    "lon": -74.03935746917999,
    "operationType": "sale",
    "createdDate": "2026-01-24",
    "source": "FincaRaiz",
    "url": "https://www.fincaraiz.com.co/finca-raiz?search=apartamento%20venta%20Usaquen%20bogota"
  },
  {
    "id": "apt-0012",
    "title": "Apto en Venta en Usaquen - 172m²",
    "price": 757500000,
    "currency": "COP",
    "areaM2": 172,
    "bedrooms": 3,
    "bathrooms": 2,
    "neighborhood": "Usaquen",
    "city": "Bogota",
    "lat": 4.692155053541208,
    "lon": -74.03401504412062,
    "operationType": "sale",
    "createdDate": "2026-01-23",
    "source": "Metrocuadrado",
    "url": "https://www.metrocuadrado.com/s/bogota/apartamentos?search=apartamento%20venta%20Usaquen%20bogota"
  },
  {
    "id": "apt-0013",
    "title": "Apto en Arriendo en Usaquen - 112m²",
    "price": 2100000,
    "currency": "COP",
    "areaM2": 112,
    "bedrooms": 4,
    "bathrooms": 3,
    "neighborhood": "Usaquen",
    "city": "Bogota",
    "lat": 4.69043206320231,
    "lon": -74.0273136564957,
    "operationType": "rent",
    "createdDate": "2026-02-19",
    "source": "FincaRaiz",
    "url": "https://www.fincaraiz.com.co/finca-raiz?search=apartamento%20arriendo%20Usaquen%20bogota"
  },
  {
    "id": "apt-0014",
    "title": "Se Vende Apartamento en Usaquen - 94m²",
    "price": 878100000,
    "currency": "COP",
    "areaM2": 94,
    "bedrooms": 2,
    "bathrooms": 1,
    "neighborhood": "Usaquen",
    "city": "Bogota",
    "lat": 4.691563263334858,
    "lon": -74.03523303761727,
    "operationType": "sale",
    "createdDate": "2025-12-30",
    "source": "Metrocuadrado",
    "url": "https://www.metrocuadrado.com/s/bogota/apartamentos?search=apartamento%20venta%20Usaquen%20bogota"
  },
  {
    "id": "apt-0015",
    "title": "Venta Apartamento en Usaquen - 117m²",
    "price": 929500000,
    "currency": "COP",
    "areaM2": 117,
    "bedrooms": 4,
    "bathrooms": 1,
    "neighborhood": "Usaquen",
    "city": "Bogota",
    "lat": 4.692982211158128,
    "lon": -74.03697698302146,
    "operationType": "sale",
    "createdDate": "2026-01-02",
    "source": "Metrocuadrado",
    "url": "https://www.metrocuadrado.com/s/bogota/apartamentos?search=apartamento%20venta%20Usaquen%20bogota"
  },
  {
    "id": "apt-0016",
    "title": "Apto en Arriendo en Usaquen - 117m²",
    "price": 4900000,
    "currency": "COP",
    "areaM2": 117,
    "bedrooms": 3,
    "bathrooms": 2,
    "neighborhood": "Usaquen",
    "city": "Bogota",
    "lat": 4.694627294549837,
    "lon": -74.03306043145159,
    "operationType": "rent",
    "createdDate": "2026-02-25",
    "source": "Metrocuadrado",
    "url": "https://www.metrocuadrado.com/s/bogota/apartamentos?search=apartamento%20arriendo%20Usaquen%20bogota"
  },
  {
    "id": "apt-0017",
    "title": "Se Vende Apartamento en Usaquen - 145m²",
    "price": 486900000,
    "currency": "COP",
    "areaM2": 145,
    "bedrooms": 3,
    "bathrooms": 1,
    "neighborhood": "Usaquen",
    "city": "Bogota",
    "lat": 4.691376364265453,
    "lon": -74.0264456956414,
    "operationType": "sale",
    "createdDate": "2026-01-06",
    "source": "Metrocuadrado",
    "url": "https://www.metrocuadrado.com/s/bogota/apartamentos?search=apartamento%20venta%20Usaquen%20bogota"
  },
  {
    "id": "apt-0018",
    "title": "Arriendo Hermoso Apto en Usaquen - 80m²",
    "price": 6000000,
    "currency": "COP",
    "areaM2": 80,
    "bedrooms": 3,
    "bathrooms": 1,
    "neighborhood": "Usaquen",
    "city": "Bogota",
    "lat": 4.703270046027629,
    "lon": -74.03433641184851,
    "operationType": "rent",
    "createdDate": "2026-01-30",
    "source": "Ciencuadras",
    "url": "https://www.ciencuadras.com/buscar?q=apartamento%20arriendo%20Usaquen%20bogota"
  },
  {
    "id": "apt-0019",
    "title": "Apto en Arriendo en Chico - 155m²",
    "price": 3200000,
    "currency": "COP",
    "areaM2": 155,
    "bedrooms": 4,
    "bathrooms": 4,
    "neighborhood": "Chico",
    "city": "Bogota",
    "lat": 4.660106482006243,
    "lon": -74.05335680842899,
    "operationType": "rent",
    "createdDate": "2026-03-10",
    "source": "FincaRaiz",
    "url": "https://www.fincaraiz.com.co/finca-raiz?search=apartamento%20arriendo%20Chico%20bogota"
  },
  {
    "id": "apt-0020",
    "title": "Se Arrienda Apartamento en Chico - 171m²",
    "price": 3400000,
    "currency": "COP",
    "areaM2": 171,
    "bedrooms": 3,
    "bathrooms": 1,
    "neighborhood": "Chico",
    "city": "Bogota",
    "lat": 4.665714336968226,
    "lon": -74.04713850625478,
    "operationType": "rent",
    "createdDate": "2026-02-04",
    "source": "Metrocuadrado",
    "url": "https://www.metrocuadrado.com/s/bogota/apartamentos?search=apartamento%20arriendo%20Chico%20bogota"
  },
  {
    "id": "apt-0021",
    "title": "Arriendo Hermoso Apto en Chico - 192m²",
    "price": 6000000,
    "currency": "COP",
    "areaM2": 192,
    "bedrooms": 3,
    "bathrooms": 2,
    "neighborhood": "Chico",
    "city": "Bogota",
    "lat": 4.661769207956055,
    "lon": -74.05292178296011,
    "operationType": "rent",
    "createdDate": "2026-02-01",
    "source": "FincaRaiz",
    "url": "https://www.fincaraiz.com.co/finca-raiz?search=apartamento%20arriendo%20Chico%20bogota"
  },
  {
    "id": "apt-0022",
    "title": "Se Vende Apartamento en Chico - 91m²",
    "price": 889200000,
    "currency": "COP",
    "areaM2": 91,
    "bedrooms": 3,
    "bathrooms": 2,
    "neighborhood": "Chico",
    "city": "Bogota",
    "lat": 4.6603546708928,
    "lon": -74.05204619400813,
    "operationType": "sale",
    "createdDate": "2026-01-26",
    "source": "OLX",
    "url": "https://www.google.com/search?q=apartamento%20venta%20Chico%20bogota+site:olx.com.co"
  },
  {
    "id": "apt-0023",
    "title": "Oportunidad Apto en Chico - 90m²",
    "price": 1301900000,
    "currency": "COP",
    "areaM2": 90,
    "bedrooms": 2,
    "bathrooms": 1,
    "neighborhood": "Chico",
    "city": "Bogota",
    "lat": 4.667534190382375,
    "lon": -74.06086218891932,
    "operationType": "sale",
    "createdDate": "2026-01-29",
    "source": "OLX",
    "url": "https://www.google.com/search?q=apartamento%20venta%20Chico%20bogota+site:olx.com.co"
  },
  {
    "id": "apt-0024",
    "title": "Oportunidad Apto en Chico - 111m²",
    "price": 998600000,
    "currency": "COP",
    "areaM2": 111,
    "bedrooms": 3,
    "bathrooms": 3,
    "neighborhood": "Chico",
    "city": "Bogota",
    "lat": 4.667798374790045,
    "lon": -74.06071485127343,
    "operationType": "sale",
    "createdDate": "2026-01-21",
    "source": "Ciencuadras",
    "url": "https://www.ciencuadras.com/buscar?q=apartamento%20venta%20Chico%20bogota"
  },
  {
    "id": "apt-0025",
    "title": "Oportunidad Apto en Chico - 63m²",
    "price": 1115700000,
    "currency": "COP",
    "areaM2": 63,
    "bedrooms": 1,
    "bathrooms": 1,
    "neighborhood": "Chico",
    "city": "Bogota",
    "lat": 4.664549577965447,
    "lon": -74.0482430568526,
    "operationType": "sale",
    "createdDate": "2026-01-02",
    "source": "OLX",
    "url": "https://www.google.com/search?q=apartamento%20venta%20Chico%20bogota+site:olx.com.co"
  },
  {
    "id": "apt-0026",
    "title": "Se Arrienda Apartamento en Chico - 185m²",
    "price": 5100000,
    "currency": "COP",
    "areaM2": 185,
    "bedrooms": 3,
    "bathrooms": 1,
    "neighborhood": "Chico",
    "city": "Bogota",
    "lat": 4.665581880518311,
    "lon": -74.05333405894491,
    "operationType": "rent",
    "createdDate": "2026-01-27",
    "source": "Properati",
    "url": "https://www.google.com/search?q=apartamento%20arriendo%20Chico%20bogota+site:properati.com.co"
  },
  {
    "id": "apt-0027",
    "title": "Apto en Arriendo en Chico - 78m²",
    "price": 5900000,
    "currency": "COP",
    "areaM2": 78,
    "bedrooms": 3,
    "bathrooms": 3,
    "neighborhood": "Chico",
    "city": "Bogota",
    "lat": 4.660823057663462,
    "lon": -74.05486974315427,
    "operationType": "rent",
    "createdDate": "2025-12-31",
    "source": "Ciencuadras",
    "url": "https://www.ciencuadras.com/buscar?q=apartamento%20arriendo%20Chico%20bogota"
  },
  {
    "id": "apt-0028",
    "title": "Apto en Arriendo en Chico - 106m²",
    "price": 4700000,
    "currency": "COP",
    "areaM2": 106,
    "bedrooms": 3,
    "bathrooms": 3,
    "neighborhood": "Chico",
    "city": "Bogota",
    "lat": 4.660566456950331,
    "lon": -74.04755792672938,
    "operationType": "rent",
    "createdDate": "2026-01-30",
    "source": "Metrocuadrado",
    "url": "https://www.metrocuadrado.com/s/bogota/apartamentos?search=apartamento%20arriendo%20Chico%20bogota"
  },
  {
    "id": "apt-0029",
    "title": "Apto en Arriendo en Chico - 179m²",
    "price": 6600000,
    "currency": "COP",
    "areaM2": 179,
    "bedrooms": 3,
    "bathrooms": 2,
    "neighborhood": "Chico",
    "city": "Bogota",
    "lat": 4.663254175483486,
    "lon": -74.05507256104339,
    "operationType": "rent",
    "createdDate": "2026-01-21",
    "source": "FincaRaiz",
    "url": "https://www.fincaraiz.com.co/finca-raiz?search=apartamento%20arriendo%20Chico%20bogota"
  },
  {
    "id": "apt-0030",
    "title": "Oportunidad Apto en Suba - 87m²",
    "price": 300100000,
    "currency": "COP",
    "areaM2": 87,
    "bedrooms": 3,
    "bathrooms": 2,
    "neighborhood": "Suba",
    "city": "Bogota",
    "lat": 4.737531548082392,
    "lon": -74.08827129339592,
    "operationType": "sale",
    "createdDate": "2026-01-28",
    "source": "Ciencuadras",
    "url": "https://www.ciencuadras.com/buscar?q=apartamento%20venta%20Suba%20bogota"
  },
  {
    "id": "apt-0031",
    "title": "Apto en Venta en Suba - 50m²",
    "price": 283100000,
    "currency": "COP",
    "areaM2": 50,
    "bedrooms": 2,
    "bathrooms": 1,
    "neighborhood": "Suba",
    "city": "Bogota",
    "lat": 4.7353764809164,
    "lon": -74.08348513535968,
    "operationType": "sale",
    "createdDate": "2026-02-19",
    "source": "OLX",
    "url": "https://www.google.com/search?q=apartamento%20venta%20Suba%20bogota+site:olx.com.co"
  },
  {
    "id": "apt-0032",
    "title": "Apto en Venta en Suba - 36m²",
    "price": 476300000,
    "currency": "COP",
    "areaM2": 36,
    "bedrooms": 1,
    "bathrooms": 1,
    "neighborhood": "Suba",
    "city": "Bogota",
    "lat": 4.743933015397687,
    "lon": -74.07881017532509,
    "operationType": "sale",
    "createdDate": "2026-02-08",
    "source": "FincaRaiz",
    "url": "https://www.fincaraiz.com.co/finca-raiz?search=apartamento%20venta%20Suba%20bogota"
  },
  {
    "id": "apt-0033",
    "title": "Apto en Venta en Suba - 60m²",
    "price": 426800000,
    "currency": "COP",
    "areaM2": 60,
    "bedrooms": 1,
    "bathrooms": 1,
    "neighborhood": "Suba",
    "city": "Bogota",
    "lat": 4.734067863658599,
    "lon": -74.08741537697327,
    "operationType": "sale",
    "createdDate": "2026-01-25",
    "source": "FincaRaiz",
    "url": "https://www.fincaraiz.com.co/finca-raiz?search=apartamento%20venta%20Suba%20bogota"
  },
  {
    "id": "apt-0034",
    "title": "Se Vende Apartamento en Suba - 81m²",
    "price": 167900000,
    "currency": "COP",
    "areaM2": 81,
    "bedrooms": 3,
    "bathrooms": 1,
    "neighborhood": "Suba",
    "city": "Bogota",
    "lat": 4.74110109034842,
    "lon": -74.07997445620315,
    "operationType": "sale",
    "createdDate": "2025-12-31",
    "source": "Ciencuadras",
    "url": "https://www.ciencuadras.com/buscar?q=apartamento%20venta%20Suba%20bogota"
  },
  {
    "id": "apt-0035",
    "title": "Apto en Venta en Suba - 53m²",
    "price": 405600000,
    "currency": "COP",
    "areaM2": 53,
    "bedrooms": 2,
    "bathrooms": 2,
    "neighborhood": "Suba",
    "city": "Bogota",
    "lat": 4.742279914513025,
    "lon": -74.08247673090499,
    "operationType": "sale",
    "createdDate": "2026-03-01",
    "source": "Metrocuadrado",
    "url": "https://www.metrocuadrado.com/s/bogota/apartamentos?search=apartamento%20venta%20Suba%20bogota"
  },
  {
    "id": "apt-0036",
    "title": "Arriendo Hermoso Apto en Suba - 67m²",
    "price": 1600000,
    "currency": "COP",
    "areaM2": 67,
    "bedrooms": 2,
    "bathrooms": 1,
    "neighborhood": "Suba",
    "city": "Bogota",
    "lat": 4.7466547303503885,
    "lon": -74.08494698657603,
    "operationType": "rent",
    "createdDate": "2026-02-16",
    "source": "OLX",
    "url": "https://www.google.com/search?q=apartamento%20arriendo%20Suba%20bogota+site:olx.com.co"
  },
  {
    "id": "apt-0037",
    "title": "Se Vende Apartamento en Suba - 64m²",
    "price": 200400000,
    "currency": "COP",
    "areaM2": 64,
    "bedrooms": 2,
    "bathrooms": 2,
    "neighborhood": "Suba",
    "city": "Bogota",
    "lat": 4.741252131649993,
    "lon": -74.091423301842,
    "operationType": "sale",
    "createdDate": "2026-01-04",
    "source": "Ciencuadras",
    "url": "https://www.ciencuadras.com/buscar?q=apartamento%20venta%20Suba%20bogota"
  },
  {
    "id": "apt-0038",
    "title": "Arriendo Apartamento en Suba - 84m²",
    "price": 1200000,
    "currency": "COP",
    "areaM2": 84,
    "bedrooms": 2,
    "bathrooms": 1,
    "neighborhood": "Suba",
    "city": "Bogota",
    "lat": 4.738273839034394,
    "lon": -74.07758726888764,
    "operationType": "rent",
    "createdDate": "2026-01-20",
    "source": "FincaRaiz",
    "url": "https://www.fincaraiz.com.co/finca-raiz?search=apartamento%20arriendo%20Suba%20bogota"
  },
  {
    "id": "apt-0039",
    "title": "Se Arrienda Apartamento en Suba - 57m²",
    "price": 2400000,
    "currency": "COP",
    "areaM2": 57,
    "bedrooms": 1,
    "bathrooms": 1,
    "neighborhood": "Suba",
    "city": "Bogota",
    "lat": 4.7367778659074355,
    "lon": -74.08040760198134,
    "operationType": "rent",
    "createdDate": "2026-01-27",
    "source": "Properati",
    "url": "https://www.google.com/search?q=apartamento%20arriendo%20Suba%20bogota+site:properati.com.co"
  },
  {
    "id": "apt-0040",
    "title": "Oportunidad Apto en Suba - 89m²",
    "price": 212500000,
    "currency": "COP",
    "areaM2": 89,
    "bedrooms": 2,
    "bathrooms": 2,
    "neighborhood": "Suba",
    "city": "Bogota",
    "lat": 4.738907862682275,
    "lon": -74.08655182393133,
    "operationType": "sale",
    "createdDate": "2026-03-02",
    "source": "Ciencuadras",
    "url": "https://www.ciencuadras.com/buscar?q=apartamento%20venta%20Suba%20bogota"
  },
  {
    "id": "apt-0041",
    "title": "Apto en Arriendo en Cedritos - 100m²",
    "price": 3100000,
    "currency": "COP",
    "areaM2": 100,
    "bedrooms": 2,
    "bathrooms": 1,
    "neighborhood": "Cedritos",
    "city": "Bogota",
    "lat": 4.723703597992849,
    "lon": -74.04362849666283,
    "operationType": "rent",
    "createdDate": "2026-01-30",
    "source": "Metrocuadrado",
    "url": "https://www.metrocuadrado.com/s/bogota/apartamentos?search=apartamento%20arriendo%20Cedritos%20bogota"
  },
  {
    "id": "apt-0042",
    "title": "Apto en Arriendo en Cedritos - 84m²",
    "price": 1800000,
    "currency": "COP",
    "areaM2": 84,
    "bedrooms": 3,
    "bathrooms": 1,
    "neighborhood": "Cedritos",
    "city": "Bogota",
    "lat": 4.726704843493369,
    "lon": -74.04669539289614,
    "operationType": "rent",
    "createdDate": "2026-03-02",
    "source": "Metrocuadrado",
    "url": "https://www.metrocuadrado.com/s/bogota/apartamentos?search=apartamento%20arriendo%20Cedritos%20bogota"
  },
  {
    "id": "apt-0043",
    "title": "Venta Apartamento en Cedritos - 91m²",
    "price": 588300000,
    "currency": "COP",
    "areaM2": 91,
    "bedrooms": 2,
    "bathrooms": 1,
    "neighborhood": "Cedritos",
    "city": "Bogota",
    "lat": 4.716511994564917,
    "lon": -74.04290725361966,
    "operationType": "sale",
    "createdDate": "2026-01-20",
    "source": "FincaRaiz",
    "url": "https://www.fincaraiz.com.co/finca-raiz?search=apartamento%20venta%20Cedritos%20bogota"
  },
  {
    "id": "apt-0044",
    "title": "Apto en Venta en Cedritos - 41m²",
    "price": 253400000,
    "currency": "COP",
    "areaM2": 41,
    "bedrooms": 1,
    "bathrooms": 1,
    "neighborhood": "Cedritos",
    "city": "Bogota",
    "lat": 4.722633613385851,
    "lon": -74.04185977810376,
    "operationType": "sale",
    "createdDate": "2026-02-17",
    "source": "Metrocuadrado",
    "url": "https://www.metrocuadrado.com/s/bogota/apartamentos?search=apartamento%20venta%20Cedritos%20bogota"
  },
  {
    "id": "apt-0045",
    "title": "Venta Apartamento en Cedritos - 44m²",
    "price": 523200000,
    "currency": "COP",
    "areaM2": 44,
    "bedrooms": 1,
    "bathrooms": 1,
    "neighborhood": "Cedritos",
    "city": "Bogota",
    "lat": 4.726356754956633,
    "lon": -74.04701942708904,
    "operationType": "sale",
    "createdDate": "2026-03-08",
    "source": "Ciencuadras",
    "url": "https://www.ciencuadras.com/buscar?q=apartamento%20venta%20Cedritos%20bogota"
  },
  {
    "id": "apt-0046",
    "title": "Oportunidad Apto en Cedritos - 77m²",
    "price": 436200000,
    "currency": "COP",
    "areaM2": 77,
    "bedrooms": 2,
    "bathrooms": 1,
    "neighborhood": "Cedritos",
    "city": "Bogota",
    "lat": 4.724830808535061,
    "lon": -74.04360092252037,
    "operationType": "sale",
    "createdDate": "2026-02-08",
    "source": "Ciencuadras",
    "url": "https://www.ciencuadras.com/buscar?q=apartamento%20venta%20Cedritos%20bogota"
  },
  {
    "id": "apt-0047",
    "title": "Venta Apartamento en Cedritos - 44m²",
    "price": 327100000,
    "currency": "COP",
    "areaM2": 44,
    "bedrooms": 1,
    "bathrooms": 1,
    "neighborhood": "Cedritos",
    "city": "Bogota",
    "lat": 4.72727897179339,
    "lon": -74.04232105894137,
    "operationType": "sale",
    "createdDate": "2026-02-05",
    "source": "Ciencuadras",
    "url": "https://www.ciencuadras.com/buscar?q=apartamento%20venta%20Cedritos%20bogota"
  },
  {
    "id": "apt-0048",
    "title": "Arriendo Hermoso Apto en Cedritos - 90m²",
    "price": 1500000,
    "currency": "COP",
    "areaM2": 90,
    "bedrooms": 2,
    "bathrooms": 2,
    "neighborhood": "Cedritos",
    "city": "Bogota",
    "lat": 4.71458075605806,
    "lon": -74.04123282324312,
    "operationType": "rent",
    "createdDate": "2026-01-07",
    "source": "FincaRaiz",
    "url": "https://www.fincaraiz.com.co/finca-raiz?search=apartamento%20arriendo%20Cedritos%20bogota"
  },
  {
    "id": "apt-0049",
    "title": "Arriendo Apartamento en Cedritos - 109m²",
    "price": 3000000,
    "currency": "COP",
    "areaM2": 109,
    "bedrooms": 2,
    "bathrooms": 1,
    "neighborhood": "Cedritos",
    "city": "Bogota",
    "lat": 4.7204791200728895,
    "lon": -74.04242887217684,
    "operationType": "rent",
    "createdDate": "2026-01-19",
    "source": "FincaRaiz",
    "url": "https://www.fincaraiz.com.co/finca-raiz?search=apartamento%20arriendo%20Cedritos%20bogota"
  },
  {
    "id": "apt-0050",
    "title": "Apto en Venta en Cedritos - 102m²",
    "price": 317500000,
    "currency": "COP",
    "areaM2": 102,
    "bedrooms": 2,
    "bathrooms": 1,
    "neighborhood": "Cedritos",
    "city": "Bogota",
    "lat": 4.716939197818227,
    "lon": -74.04790217859382,
    "operationType": "sale",
    "createdDate": "2026-03-16",
    "source": "OLX",
    "url": "https://www.google.com/search?q=apartamento%20venta%20Cedritos%20bogota+site:olx.com.co"
  },
  {
    "id": "apt-0051",
    "title": "Se Arrienda Apartamento en Rosales - 98m²",
    "price": 5300000,
    "currency": "COP",
    "areaM2": 98,
    "bedrooms": 3,
    "bathrooms": 3,
    "neighborhood": "Rosales",
    "city": "Bogota",
    "lat": 4.6501504099011886,
    "lon": -74.0540607097182,
    "operationType": "rent",
    "createdDate": "2026-02-18",
    "source": "Properati",
    "url": "https://www.google.com/search?q=apartamento%20arriendo%20Rosales%20bogota+site:properati.com.co"
  },
  {
    "id": "apt-0052",
    "title": "Apto en Arriendo en Rosales - 127m²",
    "price": 6000000,
    "currency": "COP",
    "areaM2": 127,
    "bedrooms": 4,
    "bathrooms": 2,
    "neighborhood": "Rosales",
    "city": "Bogota",
    "lat": 4.656147350049714,
    "lon": -74.06348768038347,
    "operationType": "rent",
    "createdDate": "2026-01-15",
    "source": "Ciencuadras",
    "url": "https://www.ciencuadras.com/buscar?q=apartamento%20arriendo%20Rosales%20bogota"
  },
  {
    "id": "apt-0053",
    "title": "Oportunidad Apto en Rosales - 113m²",
    "price": 1378100000,
    "currency": "COP",
    "areaM2": 113,
    "bedrooms": 3,
    "bathrooms": 2,
    "neighborhood": "Rosales",
    "city": "Bogota",
    "lat": 4.650279130515902,
    "lon": -74.05065333923665,
    "operationType": "sale",
    "createdDate": "2026-03-03",
    "source": "OLX",
    "url": "https://www.google.com/search?q=apartamento%20venta%20Rosales%20bogota+site:olx.com.co"
  },
  {
    "id": "apt-0054",
    "title": "Se Arrienda Apartamento en Rosales - 125m²",
    "price": 7000000,
    "currency": "COP",
    "areaM2": 125,
    "bedrooms": 4,
    "bathrooms": 3,
    "neighborhood": "Rosales",
    "city": "Bogota",
    "lat": 4.657805345141613,
    "lon": -74.0525641838187,
    "operationType": "rent",
    "createdDate": "2026-03-06",
    "source": "FincaRaiz",
    "url": "https://www.fincaraiz.com.co/finca-raiz?search=apartamento%20arriendo%20Rosales%20bogota"
  },
  {
    "id": "apt-0055",
    "title": "Arriendo Hermoso Apto en Rosales - 154m²",
    "price": 4000000,
    "currency": "COP",
    "areaM2": 154,
    "bedrooms": 3,
    "bathrooms": 2,
    "neighborhood": "Rosales",
    "city": "Bogota",
    "lat": 4.648524727360368,
    "lon": -74.06190716057075,
    "operationType": "rent",
    "createdDate": "2026-01-22",
    "source": "OLX",
    "url": "https://www.google.com/search?q=apartamento%20arriendo%20Rosales%20bogota+site:olx.com.co"
  },
  {
    "id": "apt-0056",
    "title": "Arriendo Hermoso Apto en Rosales - 115m²",
    "price": 5100000,
    "currency": "COP",
    "areaM2": 115,
    "bedrooms": 3,
    "bathrooms": 3,
    "neighborhood": "Rosales",
    "city": "Bogota",
    "lat": 4.64886879198986,
    "lon": -74.05421293539666,
    "operationType": "rent",
    "createdDate": "2026-01-12",
    "source": "OLX",
    "url": "https://www.google.com/search?q=apartamento%20arriendo%20Rosales%20bogota+site:olx.com.co"
  },
  {
    "id": "apt-0057",
    "title": "Se Vende Apartamento en Rosales - 114m²",
    "price": 952100000,
    "currency": "COP",
    "areaM2": 114,
    "bedrooms": 3,
    "bathrooms": 2,
    "neighborhood": "Rosales",
    "city": "Bogota",
    "lat": 4.647195606947593,
    "lon": -74.05043392767983,
    "operationType": "sale",
    "createdDate": "2026-03-16",
    "source": "Metrocuadrado",
    "url": "https://www.metrocuadrado.com/s/bogota/apartamentos?search=apartamento%20venta%20Rosales%20bogota"
  },
  {
    "id": "apt-0058",
    "title": "Se Arrienda Apartamento en Rosales - 180m²",
    "price": 6500000,
    "currency": "COP",
    "areaM2": 180,
    "bedrooms": 3,
    "bathrooms": 2,
    "neighborhood": "Rosales",
    "city": "Bogota",
    "lat": 4.647786627995583,
    "lon": -74.0621431787453,
    "operationType": "rent",
    "createdDate": "2026-03-01",
    "source": "FincaRaiz",
    "url": "https://www.fincaraiz.com.co/finca-raiz?search=apartamento%20arriendo%20Rosales%20bogota"
  },
  {
    "id": "apt-0059",
    "title": "Arriendo Hermoso Apto en Santa Barbara - 63m²",
    "price": 2300000,
    "currency": "COP",
    "areaM2": 63,
    "bedrooms": 1,
    "bathrooms": 1,
    "neighborhood": "Santa Barbara",
    "city": "Bogota",
    "lat": 4.684572145300985,
    "lon": -74.04195385648306,
    "operationType": "rent",
    "createdDate": "2026-03-13",
    "source": "Metrocuadrado",
    "url": "https://www.metrocuadrado.com/s/bogota/apartamentos?search=apartamento%20arriendo%20Santa%20Barbara%20bogota"
  },
  {
    "id": "apt-0060",
    "title": "Apto en Venta en Santa Barbara - 145m²",
    "price": 950200000,
    "currency": "COP",
    "areaM2": 145,
    "bedrooms": 4,
    "bathrooms": 2,
    "neighborhood": "Santa Barbara",
    "city": "Bogota",
    "lat": 4.689508081618704,
    "lon": -74.04867220320568,
    "operationType": "sale",
    "createdDate": "2026-02-14",
    "source": "OLX",
    "url": "https://www.google.com/search?q=apartamento%20venta%20Santa%20Barbara%20bogota+site:olx.com.co"
  },
  {
    "id": "apt-0061",
    "title": "Se Arrienda Apartamento en Santa Barbara - 85m²",
    "price": 4400000,
    "currency": "COP",
    "areaM2": 85,
    "bedrooms": 2,
    "bathrooms": 2,
    "neighborhood": "Santa Barbara",
    "city": "Bogota",
    "lat": 4.691043601661495,
    "lon": -74.04118685602275,
    "operationType": "rent",
    "createdDate": "2026-02-07",
    "source": "FincaRaiz",
    "url": "https://www.fincaraiz.com.co/finca-raiz?search=apartamento%20arriendo%20Santa%20Barbara%20bogota"
  },
  {
    "id": "apt-0062",
    "title": "Arriendo Apartamento en Santa Barbara - 101m²",
    "price": 5000000,
    "currency": "COP",
    "areaM2": 101,
    "bedrooms": 2,
    "bathrooms": 2,
    "neighborhood": "Santa Barbara",
    "city": "Bogota",
    "lat": 4.6824247857769254,
    "lon": -74.04262536054442,
    "operationType": "rent",
    "createdDate": "2026-01-21",
    "source": "Ciencuadras",
    "url": "https://www.ciencuadras.com/buscar?q=apartamento%20arriendo%20Santa%20Barbara%20bogota"
  },
  {
    "id": "apt-0063",
    "title": "Apto en Venta en Santa Barbara - 137m²",
    "price": 802800000,
    "currency": "COP",
    "areaM2": 137,
    "bedrooms": 4,
    "bathrooms": 4,
    "neighborhood": "Santa Barbara",
    "city": "Bogota",
    "lat": 4.690042794109828,
    "lon": -74.04675936907414,
    "operationType": "sale",
    "createdDate": "2026-01-22",
    "source": "Ciencuadras",
    "url": "https://www.ciencuadras.com/buscar?q=apartamento%20venta%20Santa%20Barbara%20bogota"
  },
  {
    "id": "apt-0064",
    "title": "Se Vende Apartamento en Santa Barbara - 125m²",
    "price": 426400000,
    "currency": "COP",
    "areaM2": 125,
    "bedrooms": 3,
    "bathrooms": 3,
    "neighborhood": "Santa Barbara",
    "city": "Bogota",
    "lat": 4.6912005665099255,
    "lon": -74.04307864969138,
    "operationType": "sale",
    "createdDate": "2026-01-12",
    "source": "Metrocuadrado",
    "url": "https://www.metrocuadrado.com/s/bogota/apartamentos?search=apartamento%20venta%20Santa%20Barbara%20bogota"
  },
  {
    "id": "apt-0065",
    "title": "Se Arrienda Apartamento en Santa Barbara - 64m²",
    "price": 4100000,
    "currency": "COP",
    "areaM2": 64,
    "bedrooms": 2,
    "bathrooms": 1,
    "neighborhood": "Santa Barbara",
    "city": "Bogota",
    "lat": 4.685033962706136,
    "lon": -74.05018873172783,
    "operationType": "rent",
    "createdDate": "2026-03-05",
    "source": "OLX",
    "url": "https://www.google.com/search?q=apartamento%20arriendo%20Santa%20Barbara%20bogota+site:olx.com.co"
  },
  {
    "id": "apt-0066",
    "title": "Se Arrienda Apartamento en Santa Barbara - 124m²",
    "price": 5400000,
    "currency": "COP",
    "areaM2": 124,
    "bedrooms": 3,
    "bathrooms": 1,
    "neighborhood": "Santa Barbara",
    "city": "Bogota",
    "lat": 4.679368108885705,
    "lon": -74.04119384734723,
    "operationType": "rent",
    "createdDate": "2026-01-24",
    "source": "Metrocuadrado",
    "url": "https://www.metrocuadrado.com/s/bogota/apartamentos?search=apartamento%20arriendo%20Santa%20Barbara%20bogota"
  },
  {
    "id": "apt-0067",
    "title": "Arriendo Hermoso Apto en Kennedy - 49m²",
    "price": 1500000,
    "currency": "COP",
    "areaM2": 49,
    "bedrooms": 2,
    "bathrooms": 1,
    "neighborhood": "Kennedy",
    "city": "Bogota",
    "lat": 4.6292347433750844,
    "lon": -74.14366804592699,
    "operationType": "rent",
    "createdDate": "2026-01-23",
    "source": "OLX",
    "url": "https://www.google.com/search?q=apartamento%20arriendo%20Kennedy%20bogota+site:olx.com.co"
  },
  {
    "id": "apt-0068",
    "title": "Se Vende Apartamento en Kennedy - 45m²",
    "price": 341100000,
    "currency": "COP",
    "areaM2": 45,
    "bedrooms": 2,
    "bathrooms": 1,
    "neighborhood": "Kennedy",
    "city": "Bogota",
    "lat": 4.632262875443569,
    "lon": -74.144852394597,
    "operationType": "sale",
    "createdDate": "2026-01-25",
    "source": "FincaRaiz",
    "url": "https://www.fincaraiz.com.co/finca-raiz?search=apartamento%20venta%20Kennedy%20bogota"
  },
  {
    "id": "apt-0069",
    "title": "Venta Apartamento en Kennedy - 58m²",
    "price": 341900000,
    "currency": "COP",
    "areaM2": 58,
    "bedrooms": 1,
    "bathrooms": 1,
    "neighborhood": "Kennedy",
    "city": "Bogota",
    "lat": 4.620776648297698,
    "lon": -74.14387194536101,
    "operationType": "sale",
    "createdDate": "2026-03-03",
    "source": "FincaRaiz",
    "url": "https://www.fincaraiz.com.co/finca-raiz?search=apartamento%20venta%20Kennedy%20bogota"
  },
  {
    "id": "apt-0070",
    "title": "Apto en Arriendo en Kennedy - 32m²",
    "price": 1600000,
    "currency": "COP",
    "areaM2": 32,
    "bedrooms": 1,
    "bathrooms": 1,
    "neighborhood": "Kennedy",
    "city": "Bogota",
    "lat": 4.634191266659825,
    "lon": -74.14938123807532,
    "operationType": "rent",
    "createdDate": "2026-03-02",
    "source": "FincaRaiz",
    "url": "https://www.fincaraiz.com.co/finca-raiz?search=apartamento%20arriendo%20Kennedy%20bogota"
  },
  {
    "id": "apt-0071",
    "title": "Apto en Venta en Kennedy - 58m²",
    "price": 306800000,
    "currency": "COP",
    "areaM2": 58,
    "bedrooms": 2,
    "bathrooms": 2,
    "neighborhood": "Kennedy",
    "city": "Bogota",
    "lat": 4.62529919626126,
    "lon": -74.15340835717404,
    "operationType": "sale",
    "createdDate": "2026-03-23",
    "source": "FincaRaiz",
    "url": "https://www.fincaraiz.com.co/finca-raiz?search=apartamento%20venta%20Kennedy%20bogota"
  },
  {
    "id": "apt-0072",
    "title": "Venta Apartamento en Kennedy - 59m²",
    "price": 130800000,
    "currency": "COP",
    "areaM2": 59,
    "bedrooms": 1,
    "bathrooms": 1,
    "neighborhood": "Kennedy",
    "city": "Bogota",
    "lat": 4.631499466132838,
    "lon": -74.15047267408899,
    "operationType": "sale",
    "createdDate": "2026-02-23",
    "source": "OLX",
    "url": "https://www.google.com/search?q=apartamento%20venta%20Kennedy%20bogota+site:olx.com.co"
  },
  {
    "id": "apt-0073",
    "title": "Apto en Venta en Kennedy - 45m²",
    "price": 285000000,
    "currency": "COP",
    "areaM2": 45,
    "bedrooms": 1,
    "bathrooms": 1,
    "neighborhood": "Kennedy",
    "city": "Bogota",
    "lat": 4.627587489713065,
    "lon": -74.15406033059773,
    "operationType": "sale",
    "createdDate": "2026-02-10",
    "source": "Ciencuadras",
    "url": "https://www.ciencuadras.com/buscar?q=apartamento%20venta%20Kennedy%20bogota"
  },
  {
    "id": "apt-0074",
    "title": "Apto en Venta en Kennedy - 33m²",
    "price": 160700000,
    "currency": "COP",
    "areaM2": 33,
    "bedrooms": 1,
    "bathrooms": 1,
    "neighborhood": "Kennedy",
    "city": "Bogota",
    "lat": 4.62687908511225,
    "lon": -74.15021645093869,
    "operationType": "sale",
    "createdDate": "2026-02-15",
    "source": "OLX",
    "url": "https://www.google.com/search?q=apartamento%20venta%20Kennedy%20bogota+site:olx.com.co"
  },
  {
    "id": "apt-0075",
    "title": "Venta Apartamento en Kennedy - 35m²",
    "price": 183000000,
    "currency": "COP",
    "areaM2": 35,
    "bedrooms": 1,
    "bathrooms": 1,
    "neighborhood": "Kennedy",
    "city": "Bogota",
    "lat": 4.63308353930673,
    "lon": -74.15195485288739,
    "operationType": "sale",
    "createdDate": "2026-01-31",
    "source": "Properati",
    "url": "https://www.google.com/search?q=apartamento%20venta%20Kennedy%20bogota+site:properati.com.co"
  },
  {
    "id": "apt-0076",
    "title": "Apto en Arriendo en Fontibon - 49m²",
    "price": 1500000,
    "currency": "COP",
    "areaM2": 49,
    "bedrooms": 1,
    "bathrooms": 1,
    "neighborhood": "Fontibon",
    "city": "Bogota",
    "lat": 4.666910025070803,
    "lon": -74.13920852865019,
    "operationType": "rent",
    "createdDate": "2026-01-28",
    "source": "Ciencuadras",
    "url": "https://www.ciencuadras.com/buscar?q=apartamento%20arriendo%20Fontibon%20bogota"
  },
  {
    "id": "apt-0077",
    "title": "Arriendo Apartamento en Fontibon - 42m²",
    "price": 1400000,
    "currency": "COP",
    "areaM2": 42,
    "bedrooms": 1,
    "bathrooms": 1,
    "neighborhood": "Fontibon",
    "city": "Bogota",
    "lat": 4.677198304034489,
    "lon": -74.14410406651358,
    "operationType": "rent",
    "createdDate": "2026-02-22",
    "source": "OLX",
    "url": "https://www.google.com/search?q=apartamento%20arriendo%20Fontibon%20bogota+site:olx.com.co"
  },
  {
    "id": "apt-0078",
    "title": "Venta Apartamento en Fontibon - 63m²",
    "price": 220400000,
    "currency": "COP",
    "areaM2": 63,
    "bedrooms": 1,
    "bathrooms": 1,
    "neighborhood": "Fontibon",
    "city": "Bogota",
    "lat": 4.669796570373044,
    "lon": -74.15004165648719,
    "operationType": "sale",
    "createdDate": "2026-02-11",
    "source": "OLX",
    "url": "https://www.google.com/search?q=apartamento%20venta%20Fontibon%20bogota+site:olx.com.co"
  },
  {
    "id": "apt-0079",
    "title": "Se Arrienda Apartamento en Fontibon - 61m²",
    "price": 1200000,
    "currency": "COP",
    "areaM2": 61,
    "bedrooms": 1,
    "bathrooms": 1,
    "neighborhood": "Fontibon",
    "city": "Bogota",
    "lat": 4.672583188574373,
    "lon": -74.14534956855732,
    "operationType": "rent",
    "createdDate": "2026-01-14",
    "source": "FincaRaiz",
    "url": "https://www.fincaraiz.com.co/finca-raiz?search=apartamento%20arriendo%20Fontibon%20bogota"
  },
  {
    "id": "apt-0080",
    "title": "Se Vende Apartamento en Fontibon - 52m²",
    "price": 371900000,
    "currency": "COP",
    "areaM2": 52,
    "bedrooms": 1,
    "bathrooms": 1,
    "neighborhood": "Fontibon",
    "city": "Bogota",
    "lat": 4.677618988465163,
    "lon": -74.13866084345958,
    "operationType": "sale",
    "createdDate": "2026-02-26",
    "source": "Metrocuadrado",
    "url": "https://www.metrocuadrado.com/s/bogota/apartamentos?search=apartamento%20venta%20Fontibon%20bogota"
  },
  {
    "id": "apt-0081",
    "title": "Apto en Arriendo en Fontibon - 76m²",
    "price": 1300000,
    "currency": "COP",
    "areaM2": 76,
    "bedrooms": 3,
    "bathrooms": 3,
    "neighborhood": "Fontibon",
    "city": "Bogota",
    "lat": 4.67540389618548,
    "lon": -74.1377167707544,
    "operationType": "rent",
    "createdDate": "2026-03-15",
    "source": "Properati",
    "url": "https://www.google.com/search?q=apartamento%20arriendo%20Fontibon%20bogota+site:properati.com.co"
  },
  {
    "id": "apt-0082",
    "title": "Se Arrienda Apartamento en Fontibon - 53m²",
    "price": 1200000,
    "currency": "COP",
    "areaM2": 53,
    "bedrooms": 2,
    "bathrooms": 2,
    "neighborhood": "Fontibon",
    "city": "Bogota",
    "lat": 4.674779929033276,
    "lon": -74.13973269297017,
    "operationType": "rent",
    "createdDate": "2026-02-23",
    "source": "Metrocuadrado",
    "url": "https://www.metrocuadrado.com/s/bogota/apartamentos?search=apartamento%20arriendo%20Fontibon%20bogota"
  },
  {
    "id": "apt-0083",
    "title": "Se Vende Apartamento en Fontibon - 51m²",
    "price": 151100000,
    "currency": "COP",
    "areaM2": 51,
    "bedrooms": 2,
    "bathrooms": 2,
    "neighborhood": "Fontibon",
    "city": "Bogota",
    "lat": 4.673281265126803,
    "lon": -74.1427769573245,
    "operationType": "sale",
    "createdDate": "2026-02-23",
    "source": "FincaRaiz",
    "url": "https://www.fincaraiz.com.co/finca-raiz?search=apartamento%20venta%20Fontibon%20bogota"
  },
  {
    "id": "apt-0084",
    "title": "Oportunidad Apto en Fontibon - 59m²",
    "price": 160300000,
    "currency": "COP",
    "areaM2": 59,
    "bedrooms": 2,
    "bathrooms": 1,
    "neighborhood": "Fontibon",
    "city": "Bogota",
    "lat": 4.668493360832793,
    "lon": -74.1380843892792,
    "operationType": "sale",
    "createdDate": "2026-03-07",
    "source": "Properati",
    "url": "https://www.google.com/search?q=apartamento%20venta%20Fontibon%20bogota+site:properati.com.co"
  },
  {
    "id": "apt-0085",
    "title": "Arriendo Hermoso Apto en Teusaquillo - 99m²",
    "price": 1100000,
    "currency": "COP",
    "areaM2": 99,
    "bedrooms": 3,
    "bathrooms": 1,
    "neighborhood": "Teusaquillo",
    "city": "Bogota",
    "lat": 4.633081707022694,
    "lon": -74.08975001152022,
    "operationType": "rent",
    "createdDate": "2026-02-24",
    "source": "OLX",
    "url": "https://www.google.com/search?q=apartamento%20arriendo%20Teusaquillo%20bogota+site:olx.com.co"
  },
  {
    "id": "apt-0086",
    "title": "Arriendo Hermoso Apto en Teusaquillo - 103m²",
    "price": 1300000,
    "currency": "COP",
    "areaM2": 103,
    "bedrooms": 2,
    "bathrooms": 2,
    "neighborhood": "Teusaquillo",
    "city": "Bogota",
    "lat": 4.6319765415843355,
    "lon": -74.0792655253627,
    "operationType": "rent",
    "createdDate": "2026-01-11",
    "source": "OLX",
    "url": "https://www.google.com/search?q=apartamento%20arriendo%20Teusaquillo%20bogota+site:olx.com.co"
  },
  {
    "id": "apt-0087",
    "title": "Venta Apartamento en Teusaquillo - 52m²",
    "price": 507400000,
    "currency": "COP",
    "areaM2": 52,
    "bedrooms": 1,
    "bathrooms": 1,
    "neighborhood": "Teusaquillo",
    "city": "Bogota",
    "lat": 4.636910421381155,
    "lon": -74.07554781882749,
    "operationType": "sale",
    "createdDate": "2026-02-17",
    "source": "FincaRaiz",
    "url": "https://www.fincaraiz.com.co/finca-raiz?search=apartamento%20venta%20Teusaquillo%20bogota"
  },
  {
    "id": "apt-0088",
    "title": "Apto en Arriendo en Teusaquillo - 85m²",
    "price": 1800000,
    "currency": "COP",
    "areaM2": 85,
    "bedrooms": 2,
    "bathrooms": 1,
    "neighborhood": "Teusaquillo",
    "city": "Bogota",
    "lat": 4.625690177413347,
    "lon": -74.0891880979861,
    "operationType": "rent",
    "createdDate": "2026-01-03",
    "source": "FincaRaiz",
    "url": "https://www.fincaraiz.com.co/finca-raiz?search=apartamento%20arriendo%20Teusaquillo%20bogota"
  },
  {
    "id": "apt-0089",
    "title": "Venta Apartamento en Teusaquillo - 110m²",
    "price": 525800000,
    "currency": "COP",
    "areaM2": 110,
    "bedrooms": 3,
    "bathrooms": 1,
    "neighborhood": "Teusaquillo",
    "city": "Bogota",
    "lat": 4.6348116322269775,
    "lon": -74.08489711668007,
    "operationType": "sale",
    "createdDate": "2026-01-12",
    "source": "OLX",
    "url": "https://www.google.com/search?q=apartamento%20venta%20Teusaquillo%20bogota+site:olx.com.co"
  },
  {
    "id": "apt-0090",
    "title": "Venta Apartamento en Teusaquillo - 74m²",
    "price": 204600000,
    "currency": "COP",
    "areaM2": 74,
    "bedrooms": 2,
    "bathrooms": 1,
    "neighborhood": "Teusaquillo",
    "city": "Bogota",
    "lat": 4.629145069185779,
    "lon": -74.08782210574189,
    "operationType": "sale",
    "createdDate": "2026-02-11",
    "source": "Properati",
    "url": "https://www.google.com/search?q=apartamento%20venta%20Teusaquillo%20bogota+site:properati.com.co"
  },
  {
    "id": "apt-0091",
    "title": "Arriendo Apartamento en Teusaquillo - 75m²",
    "price": 1400000,
    "currency": "COP",
    "areaM2": 75,
    "bedrooms": 2,
    "bathrooms": 1,
    "neighborhood": "Teusaquillo",
    "city": "Bogota",
    "lat": 4.627723900891583,
    "lon": -74.07839761517,
    "operationType": "rent",
    "createdDate": "2026-02-25",
    "source": "FincaRaiz",
    "url": "https://www.fincaraiz.com.co/finca-raiz?search=apartamento%20arriendo%20Teusaquillo%20bogota"
  },
  {
    "id": "apt-0092",
    "title": "Arriendo Apartamento en Teusaquillo - 72m²",
    "price": 2300000,
    "currency": "COP",
    "areaM2": 72,
    "bedrooms": 2,
    "bathrooms": 2,
    "neighborhood": "Teusaquillo",
    "city": "Bogota",
    "lat": 4.6381064908645175,
    "lon": -74.08820802132571,
    "operationType": "rent",
    "createdDate": "2026-03-17",
    "source": "Properati",
    "url": "https://www.google.com/search?q=apartamento%20arriendo%20Teusaquillo%20bogota+site:properati.com.co"
  },
  {
    "id": "apt-0093",
    "title": "Arriendo Apartamento en La Candelaria - 55m²",
    "price": 800000,
    "currency": "COP",
    "areaM2": 55,
    "bedrooms": 1,
    "bathrooms": 1,
    "neighborhood": "La Candelaria",
    "city": "Bogota",
    "lat": 4.592160981698112,
    "lon": -74.07938051110169,
    "operationType": "rent",
    "createdDate": "2026-01-08",
    "source": "FincaRaiz",
    "url": "https://www.fincaraiz.com.co/finca-raiz?search=apartamento%20arriendo%20La%20Candelaria%20bogota"
  },
  {
    "id": "apt-0094",
    "title": "Venta Apartamento en La Candelaria - 51m²",
    "price": 194600000,
    "currency": "COP",
    "areaM2": 51,
    "bedrooms": 1,
    "bathrooms": 1,
    "neighborhood": "La Candelaria",
    "city": "Bogota",
    "lat": 4.5989148275688425,
    "lon": -74.07249301457638,
    "operationType": "sale",
    "createdDate": "2026-03-17",
    "source": "OLX",
    "url": "https://www.google.com/search?q=apartamento%20venta%20La%20Candelaria%20bogota+site:olx.com.co"
  },
  {
    "id": "apt-0095",
    "title": "Oportunidad Apto en La Candelaria - 47m²",
    "price": 183600000,
    "currency": "COP",
    "areaM2": 47,
    "bedrooms": 2,
    "bathrooms": 1,
    "neighborhood": "La Candelaria",
    "city": "Bogota",
    "lat": 4.5966999279472045,
    "lon": -74.06831093811599,
    "operationType": "sale",
    "createdDate": "2026-01-01",
    "source": "Metrocuadrado",
    "url": "https://www.metrocuadrado.com/s/bogota/apartamentos?search=apartamento%20venta%20La%20Candelaria%20bogota"
  },
  {
    "id": "apt-0096",
    "title": "Apto en Arriendo en La Candelaria - 66m²",
    "price": 1500000,
    "currency": "COP",
    "areaM2": 66,
    "bedrooms": 1,
    "bathrooms": 1,
    "neighborhood": "La Candelaria",
    "city": "Bogota",
    "lat": 4.597691888365142,
    "lon": -74.07643220160848,
    "operationType": "rent",
    "createdDate": "2026-02-21",
    "source": "Properati",
    "url": "https://www.google.com/search?q=apartamento%20arriendo%20La%20Candelaria%20bogota+site:properati.com.co"
  },
  {
    "id": "apt-0097",
    "title": "Arriendo Hermoso Apto en La Candelaria - 73m²",
    "price": 1700000,
    "currency": "COP",
    "areaM2": 73,
    "bedrooms": 2,
    "bathrooms": 1,
    "neighborhood": "La Candelaria",
    "city": "Bogota",
    "lat": 4.6023600706880545,
    "lon": -74.06829193695616,
    "operationType": "rent",
    "createdDate": "2026-03-02",
    "source": "Properati",
    "url": "https://www.google.com/search?q=apartamento%20arriendo%20La%20Candelaria%20bogota+site:properati.com.co"
  },
  {
    "id": "apt-0098",
    "title": "Oportunidad Apto en La Candelaria - 35m²",
    "price": 344800000,
    "currency": "COP",
    "areaM2": 35,
    "bedrooms": 1,
    "bathrooms": 1,
    "neighborhood": "La Candelaria",
    "city": "Bogota",
    "lat": 4.595995491576843,
    "lon": -74.07277300927908,
    "operationType": "sale",
    "createdDate": "2026-02-21",
    "source": "Metrocuadrado",
    "url": "https://www.metrocuadrado.com/s/bogota/apartamentos?search=apartamento%20venta%20La%20Candelaria%20bogota"
  },
  {
    "id": "apt-0099",
    "title": "Arriendo Apartamento en La Candelaria - 41m²",
    "price": 900000,
    "currency": "COP",
    "areaM2": 41,
    "bedrooms": 1,
    "bathrooms": 1,
    "neighborhood": "La Candelaria",
    "city": "Bogota",
    "lat": 4.594935974772494,
    "lon": -74.07507193166863,
    "operationType": "rent",
    "createdDate": "2026-02-10",
    "source": "OLX",
    "url": "https://www.google.com/search?q=apartamento%20arriendo%20La%20Candelaria%20bogota+site:olx.com.co"
  },
  {
    "id": "apt-0100",
    "title": "Se Vende Apartamento en La Candelaria - 35m²",
    "price": 434600000,
    "currency": "COP",
    "areaM2": 35,
    "bedrooms": 1,
    "bathrooms": 1,
    "neighborhood": "La Candelaria",
    "city": "Bogota",
    "lat": 4.592180425834544,
    "lon": -74.06758291022254,
    "operationType": "sale",
    "createdDate": "2026-01-24",
    "source": "Properati",
    "url": "https://www.google.com/search?q=apartamento%20venta%20La%20Candelaria%20bogota+site:properati.com.co"
  },
  {
    "id": "apt-0101",
    "title": "Venta Apartamento en La Candelaria - 89m²",
    "price": 354000000,
    "currency": "COP",
    "areaM2": 89,
    "bedrooms": 3,
    "bathrooms": 1,
    "neighborhood": "La Candelaria",
    "city": "Bogota",
    "lat": 4.5893556392610595,
    "lon": -74.06877082868225,
    "operationType": "sale",
    "createdDate": "2026-01-26",
    "source": "OLX",
    "url": "https://www.google.com/search?q=apartamento%20venta%20La%20Candelaria%20bogota+site:olx.com.co"
  },
  {
    "id": "apt-0102",
    "title": "Se Vende Apartamento en La Candelaria - 61m²",
    "price": 363700000,
    "currency": "COP",
    "areaM2": 61,
    "bedrooms": 2,
    "bathrooms": 2,
    "neighborhood": "La Candelaria",
    "city": "Bogota",
    "lat": 4.596819408610295,
    "lon": -74.0701994344906,
    "operationType": "sale",
    "createdDate": "2026-01-01",
    "source": "Properati",
    "url": "https://www.google.com/search?q=apartamento%20venta%20La%20Candelaria%20bogota+site:properati.com.co"
  },
  {
    "id": "apt-0103",
    "title": "Apto en Arriendo en Engativa - 54m²",
    "price": 900000,
    "currency": "COP",
    "areaM2": 54,
    "bedrooms": 2,
    "bathrooms": 1,
    "neighborhood": "Engativa",
    "city": "Bogota",
    "lat": 4.698330762331216,
    "lon": -74.10787738835381,
    "operationType": "rent",
    "createdDate": "2026-03-06",
    "source": "Properati",
    "url": "https://www.google.com/search?q=apartamento%20arriendo%20Engativa%20bogota+site:properati.com.co"
  },
  {
    "id": "apt-0104",
    "title": "Arriendo Apartamento en Engativa - 48m²",
    "price": 800000,
    "currency": "COP",
    "areaM2": 48,
    "bedrooms": 1,
    "bathrooms": 1,
    "neighborhood": "Engativa",
    "city": "Bogota",
    "lat": 4.710163573399338,
    "lon": -74.11882185903873,
    "operationType": "rent",
    "createdDate": "2026-02-27",
    "source": "Metrocuadrado",
    "url": "https://www.metrocuadrado.com/s/bogota/apartamentos?search=apartamento%20arriendo%20Engativa%20bogota"
  },
  {
    "id": "apt-0105",
    "title": "Se Vende Apartamento en Engativa - 44m²",
    "price": 186100000,
    "currency": "COP",
    "areaM2": 44,
    "bedrooms": 1,
    "bathrooms": 1,
    "neighborhood": "Engativa",
    "city": "Bogota",
    "lat": 4.697929156425343,
    "lon": -74.10766784522372,
    "operationType": "sale",
    "createdDate": "2026-03-24",
    "source": "Properati",
    "url": "https://www.google.com/search?q=apartamento%20venta%20Engativa%20bogota+site:properati.com.co"
  },
  {
    "id": "apt-0106",
    "title": "Apto en Venta en Engativa - 39m²",
    "price": 231900000,
    "currency": "COP",
    "areaM2": 39,
    "bedrooms": 1,
    "bathrooms": 1,
    "neighborhood": "Engativa",
    "city": "Bogota",
    "lat": 4.708877325038311,
    "lon": -74.10679805274894,
    "operationType": "sale",
    "createdDate": "2026-02-04",
    "source": "FincaRaiz",
    "url": "https://www.fincaraiz.com.co/finca-raiz?search=apartamento%20venta%20Engativa%20bogota"
  },
  {
    "id": "apt-0107",
    "title": "Se Arrienda Apartamento en Engativa - 58m²",
    "price": 1000000,
    "currency": "COP",
    "areaM2": 58,
    "bedrooms": 1,
    "bathrooms": 1,
    "neighborhood": "Engativa",
    "city": "Bogota",
    "lat": 4.703644632265107,
    "lon": -74.10766545105182,
    "operationType": "rent",
    "createdDate": "2026-01-25",
    "source": "OLX",
    "url": "https://www.google.com/search?q=apartamento%20arriendo%20Engativa%20bogota+site:olx.com.co"
  },
  {
    "id": "apt-0108",
    "title": "Arriendo Hermoso Apto en Engativa - 52m²",
    "price": 1900000,
    "currency": "COP",
    "areaM2": 52,
    "bedrooms": 1,
    "bathrooms": 1,
    "neighborhood": "Engativa",
    "city": "Bogota",
    "lat": 4.70680616628314,
    "lon": -74.1167632347073,
    "operationType": "rent",
    "createdDate": "2026-01-05",
    "source": "Properati",
    "url": "https://www.google.com/search?q=apartamento%20arriendo%20Engativa%20bogota+site:properati.com.co"
  },
  {
    "id": "apt-0109",
    "title": "Arriendo Apartamento en Engativa - 55m²",
    "price": 1000000,
    "currency": "COP",
    "areaM2": 55,
    "bedrooms": 2,
    "bathrooms": 1,
    "neighborhood": "Engativa",
    "city": "Bogota",
    "lat": 4.702565193353282,
    "lon": -74.11479523364808,
    "operationType": "rent",
    "createdDate": "2026-03-24",
    "source": "FincaRaiz",
    "url": "https://www.fincaraiz.com.co/finca-raiz?search=apartamento%20arriendo%20Engativa%20bogota"
  },
  {
    "id": "apt-0110",
    "title": "Venta Apartamento en Engativa - 74m²",
    "price": 203600000,
    "currency": "COP",
    "areaM2": 74,
    "bedrooms": 2,
    "bathrooms": 1,
    "neighborhood": "Engativa",
    "city": "Bogota",
    "lat": 4.708868852086709,
    "lon": -74.1142029502715,
    "operationType": "sale",
    "createdDate": "2026-01-30",
    "source": "Ciencuadras",
    "url": "https://www.ciencuadras.com/buscar?q=apartamento%20venta%20Engativa%20bogota"
  },
  {
    "id": "apt-0111",
    "title": "Oportunidad Apto en Engativa - 44m²",
    "price": 266800000,
    "currency": "COP",
    "areaM2": 44,
    "bedrooms": 1,
    "bathrooms": 1,
    "neighborhood": "Engativa",
    "city": "Bogota",
    "lat": 4.711425531612639,
    "lon": -74.11909017795985,
    "operationType": "sale",
    "createdDate": "2026-01-28",
    "source": "FincaRaiz",
    "url": "https://www.fincaraiz.com.co/finca-raiz?search=apartamento%20venta%20Engativa%20bogota"
  },
  {
    "id": "apt-0112",
    "title": "Venta Apartamento en Engativa - 76m²",
    "price": 240700000,
    "currency": "COP",
    "areaM2": 76,
    "bedrooms": 2,
    "bathrooms": 1,
    "neighborhood": "Engativa",
    "city": "Bogota",
    "lat": 4.704266506693574,
    "lon": -74.11082193666354,
    "operationType": "sale",
    "createdDate": "2026-01-03",
    "source": "Properati",
    "url": "https://www.google.com/search?q=apartamento%20venta%20Engativa%20bogota+site:properati.com.co"
  },
  {
    "id": "apt-0113",
    "title": "Venta Apartamento en Engativa - 42m²",
    "price": 353800000,
    "currency": "COP",
    "areaM2": 42,
    "bedrooms": 1,
    "bathrooms": 1,
    "neighborhood": "Engativa",
    "city": "Bogota",
    "lat": 4.712309365779915,
    "lon": -74.11448933547688,
    "operationType": "sale",
    "createdDate": "2026-01-20",
    "source": "OLX",
    "url": "https://www.google.com/search?q=apartamento%20venta%20Engativa%20bogota+site:olx.com.co"
  },
  {
    "id": "apt-0114",
    "title": "Arriendo Apartamento en Engativa - 39m²",
    "price": 1000000,
    "currency": "COP",
    "areaM2": 39,
    "bedrooms": 1,
    "bathrooms": 1,
    "neighborhood": "Engativa",
    "city": "Bogota",
    "lat": 4.697501993300395,
    "lon": -74.11699848288531,
    "operationType": "rent",
    "createdDate": "2026-02-24",
    "source": "Metrocuadrado",
    "url": "https://www.metrocuadrado.com/s/bogota/apartamentos?search=apartamento%20arriendo%20Engativa%20bogota"
  },
  {
    "id": "apt-0115",
    "title": "Se Vende Apartamento en Bosa - 31m²",
    "price": 169300000,
    "currency": "COP",
    "areaM2": 31,
    "bedrooms": 1,
    "bathrooms": 1,
    "neighborhood": "Bosa",
    "city": "Bogota",
    "lat": 4.614298342171868,
    "lon": -74.19176310017916,
    "operationType": "sale",
    "createdDate": "2026-03-13",
    "source": "Metrocuadrado",
    "url": "https://www.metrocuadrado.com/s/bogota/apartamentos?search=apartamento%20venta%20Bosa%20bogota"
  },
  {
    "id": "apt-0116",
    "title": "Oportunidad Apto en Bosa - 64m²",
    "price": 113300000,
    "currency": "COP",
    "areaM2": 64,
    "bedrooms": 2,
    "bathrooms": 1,
    "neighborhood": "Bosa",
    "city": "Bogota",
    "lat": 4.608617543145658,
    "lon": -74.17895228923481,
    "operationType": "sale",
    "createdDate": "2026-03-05",
    "source": "Ciencuadras",
    "url": "https://www.ciencuadras.com/buscar?q=apartamento%20venta%20Bosa%20bogota"
  },
  {
    "id": "apt-0117",
    "title": "Apto en Venta en Bosa - 46m²",
    "price": 105700000,
    "currency": "COP",
    "areaM2": 46,
    "bedrooms": 1,
    "bathrooms": 1,
    "neighborhood": "Bosa",
    "city": "Bogota",
    "lat": 4.61374042166466,
    "lon": -74.17873306047333,
    "operationType": "sale",
    "createdDate": "2026-01-10",
    "source": "Metrocuadrado",
    "url": "https://www.metrocuadrado.com/s/bogota/apartamentos?search=apartamento%20venta%20Bosa%20bogota"
  },
  {
    "id": "apt-0118",
    "title": "Arriendo Apartamento en Bosa - 65m²",
    "price": 1200000,
    "currency": "COP",
    "areaM2": 65,
    "bedrooms": 1,
    "bathrooms": 1,
    "neighborhood": "Bosa",
    "city": "Bogota",
    "lat": 4.615990506581022,
    "lon": -74.19155588878279,
    "operationType": "rent",
    "createdDate": "2026-02-26",
    "source": "Ciencuadras",
    "url": "https://www.ciencuadras.com/buscar?q=apartamento%20arriendo%20Bosa%20bogota"
  },
  {
    "id": "apt-0119",
    "title": "Apto en Arriendo en Bosa - 41m²",
    "price": 700000,
    "currency": "COP",
    "areaM2": 41,
    "bedrooms": 1,
    "bathrooms": 1,
    "neighborhood": "Bosa",
    "city": "Bogota",
    "lat": 4.613653497179647,
    "lon": -74.18467287939059,
    "operationType": "rent",
    "createdDate": "2026-02-10",
    "source": "OLX",
    "url": "https://www.google.com/search?q=apartamento%20arriendo%20Bosa%20bogota+site:olx.com.co"
  },
  {
    "id": "apt-0120",
    "title": "Se Arrienda Apartamento en Bosa - 31m²",
    "price": 600000,
    "currency": "COP",
    "areaM2": 31,
    "bedrooms": 1,
    "bathrooms": 1,
    "neighborhood": "Bosa",
    "city": "Bogota",
    "lat": 4.60755193348001,
    "lon": -74.17865393145165,
    "operationType": "rent",
    "createdDate": "2026-02-08",
    "source": "Ciencuadras",
    "url": "https://www.ciencuadras.com/buscar?q=apartamento%20arriendo%20Bosa%20bogota"
  },
  {
    "id": "apt-0121",
    "title": "Se Arrienda Apartamento en Bosa - 61m²",
    "price": 1400000,
    "currency": "COP",
    "areaM2": 61,
    "bedrooms": 1,
    "bathrooms": 1,
    "neighborhood": "Bosa",
    "city": "Bogota",
    "lat": 4.604680627001618,
    "lon": -74.18170189131024,
    "operationType": "rent",
    "createdDate": "2026-02-20",
    "source": "Properati",
    "url": "https://www.google.com/search?q=apartamento%20arriendo%20Bosa%20bogota+site:properati.com.co"
  },
  {
    "id": "apt-0122",
    "title": "Apto en Venta en Bosa - 46m²",
    "price": 209500000,
    "currency": "COP",
    "areaM2": 46,
    "bedrooms": 2,
    "bathrooms": 1,
    "neighborhood": "Bosa",
    "city": "Bogota",
    "lat": 4.613458110839555,
    "lon": -74.1835310957921,
    "operationType": "sale",
    "createdDate": "2026-01-13",
    "source": "Ciencuadras",
    "url": "https://www.ciencuadras.com/buscar?q=apartamento%20venta%20Bosa%20bogota"
  },
  {
    "id": "apt-0123",
    "title": "Se Arrienda Apartamento en Bosa - 39m²",
    "price": 800000,
    "currency": "COP",
    "areaM2": 39,
    "bedrooms": 1,
    "bathrooms": 1,
    "neighborhood": "Bosa",
    "city": "Bogota",
    "lat": 4.610231813906908,
    "lon": -74.18290361754448,
    "operationType": "rent",
    "createdDate": "2026-01-08",
    "source": "OLX",
    "url": "https://www.google.com/search?q=apartamento%20arriendo%20Bosa%20bogota+site:olx.com.co"
  },
  {
    "id": "apt-0124",
    "title": "Se Arrienda Apartamento en Zipaquira - 75m²",
    "price": 900000,
    "currency": "COP",
    "areaM2": 75,
    "bedrooms": 3,
    "bathrooms": 3,
    "neighborhood": "Zipaquira",
    "city": "Zipaquira",
    "lat": 5.022330647856771,
    "lon": -73.9858014151452,
    "operationType": "rent",
    "createdDate": "2026-03-01",
    "source": "Metrocuadrado",
    "url": "https://www.metrocuadrado.com/s/bogota/apartamentos?search=apartamento%20arriendo%20Zipaquira%20bogota"
  },
  {
    "id": "apt-0125",
    "title": "Apto en Arriendo en Zipaquira - 55m²",
    "price": 1600000,
    "currency": "COP",
    "areaM2": 55,
    "bedrooms": 2,
    "bathrooms": 1,
    "neighborhood": "Zipaquira",
    "city": "Zipaquira",
    "lat": 5.015211295763693,
    "lon": -73.98575198778161,
    "operationType": "rent",
    "createdDate": "2026-01-28",
    "source": "Ciencuadras",
    "url": "https://www.ciencuadras.com/buscar?q=apartamento%20arriendo%20Zipaquira%20bogota"
  },
  {
    "id": "apt-0126",
    "title": "Arriendo Hermoso Apto en Zipaquira - 83m²",
    "price": 1200000,
    "currency": "COP",
    "areaM2": 83,
    "bedrooms": 3,
    "bathrooms": 2,
    "neighborhood": "Zipaquira",
    "city": "Zipaquira",
    "lat": 5.016992281782899,
    "lon": -73.99271997692456,
    "operationType": "rent",
    "createdDate": "2026-03-03",
    "source": "Properati",
    "url": "https://www.google.com/search?q=apartamento%20arriendo%20Zipaquira%20bogota+site:properati.com.co"
  },
  {
    "id": "apt-0127",
    "title": "Oportunidad Apto en Zipaquira - 58m²",
    "price": 143400000,
    "currency": "COP",
    "areaM2": 58,
    "bedrooms": 1,
    "bathrooms": 1,
    "neighborhood": "Zipaquira",
    "city": "Zipaquira",
    "lat": 5.020785046710433,
    "lon": -73.99771986955936,
    "operationType": "sale",
    "createdDate": "2026-03-21",
    "source": "Properati",
    "url": "https://www.google.com/search?q=apartamento%20venta%20Zipaquira%20bogota+site:properati.com.co"
  },
  {
    "id": "apt-0128",
    "title": "Oportunidad Apto en Zipaquira - 79m²",
    "price": 142300000,
    "currency": "COP",
    "areaM2": 79,
    "bedrooms": 2,
    "bathrooms": 2,
    "neighborhood": "Zipaquira",
    "city": "Zipaquira",
    "lat": 5.017652424188473,
    "lon": -73.99770657162108,
    "operationType": "sale",
    "createdDate": "2026-01-03",
    "source": "FincaRaiz",
    "url": "https://www.fincaraiz.com.co/finca-raiz?search=apartamento%20venta%20Zipaquira%20bogota"
  },
  {
    "id": "apt-0129",
    "title": "Arriendo Hermoso Apto en Zipaquira - 45m²",
    "price": 1600000,
    "currency": "COP",
    "areaM2": 45,
    "bedrooms": 1,
    "bathrooms": 1,
    "neighborhood": "Zipaquira",
    "city": "Zipaquira",
    "lat": 5.017623218892723,
    "lon": -73.99355997706303,
    "operationType": "rent",
    "createdDate": "2026-03-19",
    "source": "Properati",
    "url": "https://www.google.com/search?q=apartamento%20arriendo%20Zipaquira%20bogota+site:properati.com.co"
  },
  {
    "id": "apt-0130",
    "title": "Arriendo Hermoso Apto en Zipaquira - 63m²",
    "price": 700000,
    "currency": "COP",
    "areaM2": 63,
    "bedrooms": 2,
    "bathrooms": 2,
    "neighborhood": "Zipaquira",
    "city": "Zipaquira",
    "lat": 5.0155351601811455,
    "lon": -73.98756272619735,
    "operationType": "rent",
    "createdDate": "2026-01-17",
    "source": "Properati",
    "url": "https://www.google.com/search?q=apartamento%20arriendo%20Zipaquira%20bogota+site:properati.com.co"
  },
  {
    "id": "apt-0131",
    "title": "Arriendo Apartamento en Zipaquira - 55m²",
    "price": 1500000,
    "currency": "COP",
    "areaM2": 55,
    "bedrooms": 1,
    "bathrooms": 1,
    "neighborhood": "Zipaquira",
    "city": "Zipaquira",
    "lat": 5.01800975801331,
    "lon": -73.99199698038026,
    "operationType": "rent",
    "createdDate": "2026-02-23",
    "source": "Properati",
    "url": "https://www.google.com/search?q=apartamento%20arriendo%20Zipaquira%20bogota+site:properati.com.co"
  },
  {
    "id": "apt-0132",
    "title": "Arriendo Hermoso Apto en Chia - 58m²",
    "price": 2900000,
    "currency": "COP",
    "areaM2": 58,
    "bedrooms": 2,
    "bathrooms": 1,
    "neighborhood": "Chia",
    "city": "Chia",
    "lat": 4.8576734353733935,
    "lon": -74.05757157899865,
    "operationType": "rent",
    "createdDate": "2026-01-27",
    "source": "Ciencuadras",
    "url": "https://www.ciencuadras.com/buscar?q=apartamento%20arriendo%20Chia%20bogota"
  },
  {
    "id": "apt-0133",
    "title": "Se Vende Apartamento en Chia - 52m²",
    "price": 546100000,
    "currency": "COP",
    "areaM2": 52,
    "bedrooms": 2,
    "bathrooms": 2,
    "neighborhood": "Chia",
    "city": "Chia",
    "lat": 4.8670384116038115,
    "lon": -74.0554161476669,
    "operationType": "sale",
    "createdDate": "2026-01-19",
    "source": "OLX",
    "url": "https://www.google.com/search?q=apartamento%20venta%20Chia%20bogota+site:olx.com.co"
  },
  {
    "id": "apt-0134",
    "title": "Oportunidad Apto en Chia - 106m²",
    "price": 577500000,
    "currency": "COP",
    "areaM2": 106,
    "bedrooms": 2,
    "bathrooms": 1,
    "neighborhood": "Chia",
    "city": "Chia",
    "lat": 4.856867424837191,
    "lon": -74.05919065465795,
    "operationType": "sale",
    "createdDate": "2026-02-06",
    "source": "Metrocuadrado",
    "url": "https://www.metrocuadrado.com/s/bogota/apartamentos?search=apartamento%20venta%20Chia%20bogota"
  },
  {
    "id": "apt-0135",
    "title": "Se Vende Apartamento en Chia - 128m²",
    "price": 264900000,
    "currency": "COP",
    "areaM2": 128,
    "bedrooms": 3,
    "bathrooms": 1,
    "neighborhood": "Chia",
    "city": "Chia",
    "lat": 4.855673470017196,
    "lon": -74.05598930495138,
    "operationType": "sale",
    "createdDate": "2026-02-06",
    "source": "Properati",
    "url": "https://www.google.com/search?q=apartamento%20venta%20Chia%20bogota+site:properati.com.co"
  },
  {
    "id": "apt-0136",
    "title": "Arriendo Hermoso Apto en Chia - 65m²",
    "price": 2700000,
    "currency": "COP",
    "areaM2": 65,
    "bedrooms": 1,
    "bathrooms": 1,
    "neighborhood": "Chia",
    "city": "Chia",
    "lat": 4.866959734345749,
    "lon": -74.05774482329818,
    "operationType": "rent",
    "createdDate": "2026-02-06",
    "source": "FincaRaiz",
    "url": "https://www.fincaraiz.com.co/finca-raiz?search=apartamento%20arriendo%20Chia%20bogota"
  },
  {
    "id": "apt-0137",
    "title": "Oportunidad Apto en Chia - 58m²",
    "price": 275600000,
    "currency": "COP",
    "areaM2": 58,
    "bedrooms": 1,
    "bathrooms": 1,
    "neighborhood": "Chia",
    "city": "Chia",
    "lat": 4.869928048934256,
    "lon": -74.05928155750854,
    "operationType": "sale",
    "createdDate": "2026-01-25",
    "source": "Properati",
    "url": "https://www.google.com/search?q=apartamento%20venta%20Chia%20bogota+site:properati.com.co"
  },
  {
    "id": "apt-0138",
    "title": "Arriendo Apartamento en Chia - 64m²",
    "price": 1900000,
    "currency": "COP",
    "areaM2": 64,
    "bedrooms": 2,
    "bathrooms": 2,
    "neighborhood": "Chia",
    "city": "Chia",
    "lat": 4.864168177038122,
    "lon": -74.05544847073028,
    "operationType": "rent",
    "createdDate": "2026-02-07",
    "source": "Properati",
    "url": "https://www.google.com/search?q=apartamento%20arriendo%20Chia%20bogota+site:properati.com.co"
  },
  {
    "id": "apt-0139",
    "title": "Apto en Arriendo en Chia - 70m²",
    "price": 2300000,
    "currency": "COP",
    "areaM2": 70,
    "bedrooms": 2,
    "bathrooms": 1,
    "neighborhood": "Chia",
    "city": "Chia",
    "lat": 4.8556249866165455,
    "lon": -74.06084981931174,
    "operationType": "rent",
    "createdDate": "2026-02-10",
    "source": "Ciencuadras",
    "url": "https://www.ciencuadras.com/buscar?q=apartamento%20arriendo%20Chia%20bogota"
  },
  {
    "id": "apt-0140",
    "title": "Arriendo Hermoso Apto en Chia - 114m²",
    "price": 2200000,
    "currency": "COP",
    "areaM2": 114,
    "bedrooms": 4,
    "bathrooms": 1,
    "neighborhood": "Chia",
    "city": "Chia",
    "lat": 4.869253707815198,
    "lon": -74.05293274021702,
    "operationType": "rent",
    "createdDate": "2026-02-25",
    "source": "Metrocuadrado",
    "url": "https://www.metrocuadrado.com/s/bogota/apartamentos?search=apartamento%20arriendo%20Chia%20bogota"
  },
  {
    "id": "apt-0141",
    "title": "Apto en Arriendo en Soacha - 58m²",
    "price": 1300000,
    "currency": "COP",
    "areaM2": 58,
    "bedrooms": 2,
    "bathrooms": 2,
    "neighborhood": "Soacha",
    "city": "Soacha",
    "lat": 4.571725083464966,
    "lon": -74.22152208868417,
    "operationType": "rent",
    "createdDate": "2026-01-28",
    "source": "FincaRaiz",
    "url": "https://www.fincaraiz.com.co/finca-raiz?search=apartamento%20arriendo%20Soacha%20bogota"
  },
  {
    "id": "apt-0142",
    "title": "Se Arrienda Apartamento en Soacha - 54m²",
    "price": 1400000,
    "currency": "COP",
    "areaM2": 54,
    "bedrooms": 2,
    "bathrooms": 1,
    "neighborhood": "Soacha",
    "city": "Soacha",
    "lat": 4.578862613454333,
    "lon": -74.21605561325285,
    "operationType": "rent",
    "createdDate": "2026-01-28",
    "source": "Ciencuadras",
    "url": "https://www.ciencuadras.com/buscar?q=apartamento%20arriendo%20Soacha%20bogota"
  },
  {
    "id": "apt-0143",
    "title": "Se Arrienda Apartamento en Soacha - 54m²",
    "price": 1300000,
    "currency": "COP",
    "areaM2": 54,
    "bedrooms": 2,
    "bathrooms": 1,
    "neighborhood": "Soacha",
    "city": "Soacha",
    "lat": 4.585966852102863,
    "lon": -74.21511670300376,
    "operationType": "rent",
    "createdDate": "2026-01-26",
    "source": "Ciencuadras",
    "url": "https://www.ciencuadras.com/buscar?q=apartamento%20arriendo%20Soacha%20bogota"
  },
  {
    "id": "apt-0144",
    "title": "Apto en Venta en Soacha - 42m²",
    "price": 145300000,
    "currency": "COP",
    "areaM2": 42,
    "bedrooms": 1,
    "bathrooms": 1,
    "neighborhood": "Soacha",
    "city": "Soacha",
    "lat": 4.581917583475744,
    "lon": -74.21617448731062,
    "operationType": "sale",
    "createdDate": "2026-02-13",
    "source": "Ciencuadras",
    "url": "https://www.ciencuadras.com/buscar?q=apartamento%20venta%20Soacha%20bogota"
  },
  {
    "id": "apt-0145",
    "title": "Se Vende Apartamento en Soacha - 32m²",
    "price": 231000000,
    "currency": "COP",
    "areaM2": 32,
    "bedrooms": 1,
    "bathrooms": 1,
    "neighborhood": "Soacha",
    "city": "Soacha",
    "lat": 4.586362470263487,
    "lon": -74.21096228049552,
    "operationType": "sale",
    "createdDate": "2026-02-05",
    "source": "Metrocuadrado",
    "url": "https://www.metrocuadrado.com/s/bogota/apartamentos?search=apartamento%20venta%20Soacha%20bogota"
  },
  {
    "id": "apt-0146",
    "title": "Arriendo Apartamento en Soacha - 54m²",
    "price": 700000,
    "currency": "COP",
    "areaM2": 54,
    "bedrooms": 2,
    "bathrooms": 2,
    "neighborhood": "Soacha",
    "city": "Soacha",
    "lat": 4.5833911535776135,
    "lon": -74.2148817967166,
    "operationType": "rent",
    "createdDate": "2026-01-09",
    "source": "Ciencuadras",
    "url": "https://www.ciencuadras.com/buscar?q=apartamento%20arriendo%20Soacha%20bogota"
  },
  {
    "id": "apt-0147",
    "title": "Apto en Arriendo en Soacha - 60m²",
    "price": 1100000,
    "currency": "COP",
    "areaM2": 60,
    "bedrooms": 1,
    "bathrooms": 1,
    "neighborhood": "Soacha",
    "city": "Soacha",
    "lat": 4.576637288177048,
    "lon": -74.22209753116881,
    "operationType": "rent",
    "createdDate": "2026-01-08",
    "source": "FincaRaiz",
    "url": "https://www.fincaraiz.com.co/finca-raiz?search=apartamento%20arriendo%20Soacha%20bogota"
  },
  {
    "id": "apt-0148",
    "title": "Venta Apartamento en Soacha - 41m²",
    "price": 130800000,
    "currency": "COP",
    "areaM2": 41,
    "bedrooms": 1,
    "bathrooms": 1,
    "neighborhood": "Soacha",
    "city": "Soacha",
    "lat": 4.572644074868545,
    "lon": -74.21103357592321,
    "operationType": "sale",
    "createdDate": "2026-01-26",
    "source": "OLX",
    "url": "https://www.google.com/search?q=apartamento%20venta%20Soacha%20bogota+site:olx.com.co"
  },
  {
    "id": "apt-0149",
    "title": "Apto en Arriendo en Soacha - 44m²",
    "price": 700000,
    "currency": "COP",
    "areaM2": 44,
    "bedrooms": 1,
    "bathrooms": 1,
    "neighborhood": "Soacha",
    "city": "Soacha",
    "lat": 4.572512370128662,
    "lon": -74.2195951381145,
    "operationType": "rent",
    "createdDate": "2026-01-21",
    "source": "Properati",
    "url": "https://www.google.com/search?q=apartamento%20arriendo%20Soacha%20bogota+site:properati.com.co"
  },
  {
    "id": "apt-0150",
    "title": "Arriendo Apartamento en Soacha - 47m²",
    "price": 1100000,
    "currency": "COP",
    "areaM2": 47,
    "bedrooms": 2,
    "bathrooms": 2,
    "neighborhood": "Soacha",
    "city": "Soacha",
    "lat": 4.577289162149456,
    "lon": -74.21605168200055,
    "operationType": "rent",
    "createdDate": "2026-03-20",
    "source": "OLX",
    "url": "https://www.google.com/search?q=apartamento%20arriendo%20Soacha%20bogota+site:olx.com.co"
  },
  {
    "id": "apt-0151",
    "title": "Arriendo Hermoso Apto en Soacha - 35m²",
    "price": 1100000,
    "currency": "COP",
    "areaM2": 35,
    "bedrooms": 1,
    "bathrooms": 1,
    "neighborhood": "Soacha",
    "city": "Soacha",
    "lat": 4.580222410375459,
    "lon": -74.22194877052722,
    "operationType": "rent",
    "createdDate": "2026-02-04",
    "source": "OLX",
    "url": "https://www.google.com/search?q=apartamento%20arriendo%20Soacha%20bogota+site:olx.com.co"
  },
  {
    "id": "apt-0152",
    "title": "Apto en Venta en Mosquera - 48m²",
    "price": 120500000,
    "currency": "COP",
    "areaM2": 48,
    "bedrooms": 1,
    "bathrooms": 1,
    "neighborhood": "Mosquera",
    "city": "Mosquera",
    "lat": 4.713362778780389,
    "lon": -74.2367770369428,
    "operationType": "sale",
    "createdDate": "2026-02-14",
    "source": "Metrocuadrado",
    "url": "https://www.metrocuadrado.com/s/bogota/apartamentos?search=apartamento%20venta%20Mosquera%20bogota"
  },
  {
    "id": "apt-0153",
    "title": "Se Vende Apartamento en Mosquera - 59m²",
    "price": 197600000,
    "currency": "COP",
    "areaM2": 59,
    "bedrooms": 1,
    "bathrooms": 1,
    "neighborhood": "Mosquera",
    "city": "Mosquera",
    "lat": 4.712856735227031,
    "lon": -74.23685103427,
    "operationType": "sale",
    "createdDate": "2026-02-06",
    "source": "Ciencuadras",
    "url": "https://www.ciencuadras.com/buscar?q=apartamento%20venta%20Mosquera%20bogota"
  },
  {
    "id": "apt-0154",
    "title": "Arriendo Apartamento en Mosquera - 66m²",
    "price": 1700000,
    "currency": "COP",
    "areaM2": 66,
    "bedrooms": 1,
    "bathrooms": 1,
    "neighborhood": "Mosquera",
    "city": "Mosquera",
    "lat": 4.704485388551825,
    "lon": -74.23407453892807,
    "operationType": "rent",
    "createdDate": "2026-02-09",
    "source": "OLX",
    "url": "https://www.google.com/search?q=apartamento%20arriendo%20Mosquera%20bogota+site:olx.com.co"
  },
  {
    "id": "apt-0155",
    "title": "Arriendo Apartamento en Mosquera - 73m²",
    "price": 1000000,
    "currency": "COP",
    "areaM2": 73,
    "bedrooms": 3,
    "bathrooms": 1,
    "neighborhood": "Mosquera",
    "city": "Mosquera",
    "lat": 4.711166110748114,
    "lon": -74.22617663817962,
    "operationType": "rent",
    "createdDate": "2026-01-11",
    "source": "FincaRaiz",
    "url": "https://www.fincaraiz.com.co/finca-raiz?search=apartamento%20arriendo%20Mosquera%20bogota"
  },
  {
    "id": "apt-0156",
    "title": "Se Vende Apartamento en Mosquera - 74m²",
    "price": 333900000,
    "currency": "COP",
    "areaM2": 74,
    "bedrooms": 3,
    "bathrooms": 1,
    "neighborhood": "Mosquera",
    "city": "Mosquera",
    "lat": 4.70566642729907,
    "lon": -74.22935632322995,
    "operationType": "sale",
    "createdDate": "2026-03-14",
    "source": "FincaRaiz",
    "url": "https://www.fincaraiz.com.co/finca-raiz?search=apartamento%20venta%20Mosquera%20bogota"
  },
  {
    "id": "apt-0157",
    "title": "Se Vende Apartamento en Mosquera - 79m²",
    "price": 309100000,
    "currency": "COP",
    "areaM2": 79,
    "bedrooms": 2,
    "bathrooms": 1,
    "neighborhood": "Mosquera",
    "city": "Mosquera",
    "lat": 4.704321584049446,
    "lon": -74.22713680912614,
    "operationType": "sale",
    "createdDate": "2026-03-24",
    "source": "FincaRaiz",
    "url": "https://www.fincaraiz.com.co/finca-raiz?search=apartamento%20venta%20Mosquera%20bogota"
  },
  {
    "id": "apt-0158",
    "title": "Apto en Arriendo en Mosquera - 77m²",
    "price": 1800000,
    "currency": "COP",
    "areaM2": 77,
    "bedrooms": 3,
    "bathrooms": 3,
    "neighborhood": "Mosquera",
    "city": "Mosquera",
    "lat": 4.707240174624827,
    "lon": -74.2393850315487,
    "operationType": "rent",
    "createdDate": "2026-02-28",
    "source": "Ciencuadras",
    "url": "https://www.ciencuadras.com/buscar?q=apartamento%20arriendo%20Mosquera%20bogota"
  },
  {
    "id": "apt-0159",
    "title": "Apto en Arriendo en Mosquera - 39m²",
    "price": 1500000,
    "currency": "COP",
    "areaM2": 39,
    "bedrooms": 1,
    "bathrooms": 1,
    "neighborhood": "Mosquera",
    "city": "Mosquera",
    "lat": 4.708426823023639,
    "lon": -74.23038540200507,
    "operationType": "rent",
    "createdDate": "2026-03-19",
    "source": "OLX",
    "url": "https://www.google.com/search?q=apartamento%20arriendo%20Mosquera%20bogota+site:olx.com.co"
  },
  {
    "id": "apt-0160",
    "title": "Arriendo Hermoso Apto en Mosquera - 53m²",
    "price": 900000,
    "currency": "COP",
    "areaM2": 53,
    "bedrooms": 1,
    "bathrooms": 1,
    "neighborhood": "Mosquera",
    "city": "Mosquera",
    "lat": 4.704358175666871,
    "lon": -74.2271414953574,
    "operationType": "rent",
    "createdDate": "2026-01-19",
    "source": "OLX",
    "url": "https://www.google.com/search?q=apartamento%20arriendo%20Mosquera%20bogota+site:olx.com.co"
  },
  {
    "id": "apt-0161",
    "title": "Arriendo Hermoso Apto en Madrid - 47m²",
    "price": 900000,
    "currency": "COP",
    "areaM2": 47,
    "bedrooms": 2,
    "bathrooms": 1,
    "neighborhood": "Madrid",
    "city": "Madrid",
    "lat": 4.728513913858695,
    "lon": -74.27064966746154,
    "operationType": "rent",
    "createdDate": "2026-01-18",
    "source": "Metrocuadrado",
    "url": "https://www.metrocuadrado.com/s/bogota/apartamentos?search=apartamento%20arriendo%20Madrid%20bogota"
  },
  {
    "id": "apt-0162",
    "title": "Oportunidad Apto en Madrid - 73m²",
    "price": 183900000,
    "currency": "COP",
    "areaM2": 73,
    "bedrooms": 3,
    "bathrooms": 3,
    "neighborhood": "Madrid",
    "city": "Madrid",
    "lat": 4.741422746948826,
    "lon": -74.25689202265245,
    "operationType": "sale",
    "createdDate": "2026-01-20",
    "source": "Ciencuadras",
    "url": "https://www.ciencuadras.com/buscar?q=apartamento%20venta%20Madrid%20bogota"
  },
  {
    "id": "apt-0163",
    "title": "Arriendo Hermoso Apto en Madrid - 65m²",
    "price": 900000,
    "currency": "COP",
    "areaM2": 65,
    "bedrooms": 1,
    "bathrooms": 1,
    "neighborhood": "Madrid",
    "city": "Madrid",
    "lat": 4.734694594803448,
    "lon": -74.26694507737545,
    "operationType": "rent",
    "createdDate": "2026-01-29",
    "source": "FincaRaiz",
    "url": "https://www.fincaraiz.com.co/finca-raiz?search=apartamento%20arriendo%20Madrid%20bogota"
  },
  {
    "id": "apt-0164",
    "title": "Venta Apartamento en Madrid - 39m²",
    "price": 128200000,
    "currency": "COP",
    "areaM2": 39,
    "bedrooms": 1,
    "bathrooms": 1,
    "neighborhood": "Madrid",
    "city": "Madrid",
    "lat": 4.7338589279343,
    "lon": -74.25699814060609,
    "operationType": "sale",
    "createdDate": "2026-01-11",
    "source": "OLX",
    "url": "https://www.google.com/search?q=apartamento%20venta%20Madrid%20bogota+site:olx.com.co"
  },
  {
    "id": "apt-0165",
    "title": "Apto en Arriendo en Madrid - 79m²",
    "price": 900000,
    "currency": "COP",
    "areaM2": 79,
    "bedrooms": 3,
    "bathrooms": 1,
    "neighborhood": "Madrid",
    "city": "Madrid",
    "lat": 4.7391154890988165,
    "lon": -74.259974689702,
    "operationType": "rent",
    "createdDate": "2026-01-22",
    "source": "Properati",
    "url": "https://www.google.com/search?q=apartamento%20arriendo%20Madrid%20bogota+site:properati.com.co"
  },
  {
    "id": "apt-0166",
    "title": "Venta Apartamento en Madrid - 38m²",
    "price": 220000000,
    "currency": "COP",
    "areaM2": 38,
    "bedrooms": 1,
    "bathrooms": 1,
    "neighborhood": "Madrid",
    "city": "Madrid",
    "lat": 4.735906884030818,
    "lon": -74.26200004244595,
    "operationType": "sale",
    "createdDate": "2026-02-20",
    "source": "OLX",
    "url": "https://www.google.com/search?q=apartamento%20venta%20Madrid%20bogota+site:olx.com.co"
  },
  {
    "id": "apt-0167",
    "title": "Arriendo Hermoso Apto en Madrid - 40m²",
    "price": 800000,
    "currency": "COP",
    "areaM2": 40,
    "bedrooms": 1,
    "bathrooms": 1,
    "neighborhood": "Madrid",
    "city": "Madrid",
    "lat": 4.732547888201706,
    "lon": -74.2566429160383,
    "operationType": "rent",
    "createdDate": "2026-01-10",
    "source": "FincaRaiz",
    "url": "https://www.fincaraiz.com.co/finca-raiz?search=apartamento%20arriendo%20Madrid%20bogota"
  },
  {
    "id": "apt-0168",
    "title": "Oportunidad Apto en Madrid - 79m²",
    "price": 235000000,
    "currency": "COP",
    "areaM2": 79,
    "bedrooms": 2,
    "bathrooms": 1,
    "neighborhood": "Madrid",
    "city": "Madrid",
    "lat": 4.731082664198319,
    "lon": -74.26766272949955,
    "operationType": "sale",
    "createdDate": "2026-02-07",
    "source": "Metrocuadrado",
    "url": "https://www.metrocuadrado.com/s/bogota/apartamentos?search=apartamento%20venta%20Madrid%20bogota"
  },
  {
    "id": "apt-0169",
    "title": "Arriendo Apartamento en Madrid - 76m²",
    "price": 600000,
    "currency": "COP",
    "areaM2": 76,
    "bedrooms": 3,
    "bathrooms": 1,
    "neighborhood": "Madrid",
    "city": "Madrid",
    "lat": 4.740722084565295,
    "lon": -74.25792469717322,
    "operationType": "rent",
    "createdDate": "2026-01-26",
    "source": "OLX",
    "url": "https://www.google.com/search?q=apartamento%20arriendo%20Madrid%20bogota+site:olx.com.co"
  },
  {
    "id": "apt-0170",
    "title": "Apto en Arriendo en Hacienda Casablanca - 64m²",
    "price": 700000,
    "currency": "COP",
    "areaM2": 64,
    "bedrooms": 1,
    "bathrooms": 1,
    "neighborhood": "Hacienda Casablanca",
    "city": "Hacienda Casablanca",
    "lat": 4.720208772036907,
    "lon": -74.21616835777291,
    "operationType": "rent",
    "createdDate": "2026-01-22",
    "source": "Ciencuadras",
    "url": "https://www.ciencuadras.com/buscar?q=apartamento%20arriendo%20Hacienda%20Casablanca%20bogota"
  },
  {
    "id": "apt-0171",
    "title": "Apto en Venta en Hacienda Casablanca - 84m²",
    "price": 209500000,
    "currency": "COP",
    "areaM2": 84,
    "bedrooms": 2,
    "bathrooms": 1,
    "neighborhood": "Hacienda Casablanca",
    "city": "Hacienda Casablanca",
    "lat": 4.72220616657958,
    "lon": -74.21595829469939,
    "operationType": "sale",
    "createdDate": "2026-03-16",
    "source": "Metrocuadrado",
    "url": "https://www.metrocuadrado.com/s/bogota/apartamentos?search=apartamento%20venta%20Hacienda%20Casablanca%20bogota"
  },
  {
    "id": "apt-0172",
    "title": "Arriendo Hermoso Apto en Hacienda Casablanca - 73m²",
    "price": 1300000,
    "currency": "COP",
    "areaM2": 73,
    "bedrooms": 3,
    "bathrooms": 1,
    "neighborhood": "Hacienda Casablanca",
    "city": "Hacienda Casablanca",
    "lat": 4.721143349275127,
    "lon": -74.21372872233272,
    "operationType": "rent",
    "createdDate": "2026-03-03",
    "source": "OLX",
    "url": "https://www.google.com/search?q=apartamento%20arriendo%20Hacienda%20Casablanca%20bogota+site:olx.com.co"
  },
  {
    "id": "apt-0173",
    "title": "Se Vende Apartamento en Hacienda Casablanca - 62m²",
    "price": 347300000,
    "currency": "COP",
    "areaM2": 62,
    "bedrooms": 1,
    "bathrooms": 1,
    "neighborhood": "Hacienda Casablanca",
    "city": "Hacienda Casablanca",
    "lat": 4.716754082205476,
    "lon": -74.21414032759064,
    "operationType": "sale",
    "createdDate": "2026-03-19",
    "source": "Metrocuadrado",
    "url": "https://www.metrocuadrado.com/s/bogota/apartamentos?search=apartamento%20venta%20Hacienda%20Casablanca%20bogota"
  },
  {
    "id": "apt-0174",
    "title": "Apto en Venta en Hacienda Casablanca - 51m²",
    "price": 155500000,
    "currency": "COP",
    "areaM2": 51,
    "bedrooms": 1,
    "bathrooms": 1,
    "neighborhood": "Hacienda Casablanca",
    "city": "Hacienda Casablanca",
    "lat": 4.715379180612861,
    "lon": -74.22211138391366,
    "operationType": "sale",
    "createdDate": "2026-01-18",
    "source": "FincaRaiz",
    "url": "https://www.fincaraiz.com.co/finca-raiz?search=apartamento%20venta%20Hacienda%20Casablanca%20bogota"
  },
  {
    "id": "apt-0175",
    "title": "Apto en Arriendo en Hacienda Casablanca - 53m²",
    "price": 2000000,
    "currency": "COP",
    "areaM2": 53,
    "bedrooms": 1,
    "bathrooms": 1,
    "neighborhood": "Hacienda Casablanca",
    "city": "Hacienda Casablanca",
    "lat": 4.711708889910215,
    "lon": -74.21368719457061,
    "operationType": "rent",
    "createdDate": "2026-01-17",
    "source": "OLX",
    "url": "https://www.google.com/search?q=apartamento%20arriendo%20Hacienda%20Casablanca%20bogota+site:olx.com.co"
  },
  {
    "id": "apt-0176",
    "title": "Arriendo Apartamento en Hacienda Casablanca - 48m²",
    "price": 2100000,
    "currency": "COP",
    "areaM2": 48,
    "bedrooms": 1,
    "bathrooms": 1,
    "neighborhood": "Hacienda Casablanca",
    "city": "Hacienda Casablanca",
    "lat": 4.71118869509193,
    "lon": -74.22660150141371,
    "operationType": "rent",
    "createdDate": "2026-01-21",
    "source": "Properati",
    "url": "https://www.google.com/search?q=apartamento%20arriendo%20Hacienda%20Casablanca%20bogota+site:properati.com.co"
  }
]